 [
    {
        "name": "14th Star Brewing",
        "address": "133 North Main Street, Suite 7",
        "city": "St Albans",
        "state": "VT",
        "zip": "05478",
        "latitude": 44.8150433,
        "longitude": -73.0818275,
        "vtbt40": "/img/vtbt40/fourteenthstar.png",
        "vtbt100": "/img/vtbt100/fourteenthstar.png",
        "vtbt200": "/img/vtbt200/fourteenthstar.png",
        "selector": "fourteenthstar",
        "url":"http://www.14thstarbrewing.com/",
        "phone":"802.528.5988",
        "facebook":"https://www.facebook.com/14thstarbrewing",
        "twitter":"",
        "googleplus":"",
        "instagram":"",
        "advocate": "https://www.beeradvocate.com/beer/profile/31551/",
        "region": "north-central"
    },
    {
        "name": "The Alchemist",
        "address": "100 Cottage Club Road",
        "city": "Stowe",
        "state": "VT",
        "zip": "05672",
        "latitude": 44.4762096,
        "longitude": -72.7165685,
        "vtbt40": "/img/vtbt40/alchemist.png",
        "vtbt100": "/img/vtbt100/alchemist.png",
        "vtbt200": "/img/vtbt200/alchemist.png",
        "selector": "alchemist",
        "url":"http://www.alchemistbeer.com",
        "phone":"802.882.8165",
        "facebook":"https://www.facebook.com/alchemistbeer",
        "twitter":"http://twitter.com/alchemistbeer",
        "googleplus":"",
        "instagram":"",
        "advocate": "https://www.beeradvocate.com/beer/profile/46317/",
        "region": "north-central"
    },
    {
        "name": "Bobcat Cafe and Brewery",
        "address": "5 Main Street",
        "city":"Bristol",
        "state": "VT",
        "zip": "05443",
        "latitude": 44.132926,
        "longitude": -73.0782909,
        "vtbt40": "/img/vtbt40/bobcat.png",
        "vtbt100": "/img/vtbt100/bobcat.png",
        "vtbt200": "/img/vtbt200/bobcat.png",
        "selector": "bobcat",
        "url":"http://www.thebobcatcafe.com/",
        "phone":"802.453.3311",
        "facebook":"https://www.facebook.com/bobcatcafe",
        "twitter":"",
        "googleplus":"",
        "instagram":"",
        "advocate": "https://www.beeradvocate.com/beer/profile/7302/",
        "region": "south-central"
    },
    {
        "name": "Hogback Mountain Brewing",
        "address": "Bristol Village",
        "city":"Bristol",
        "state": "VT",
        "zip": "05443",
        "latitude": 44.1333912,
        "longitude": -73.0790076,
        "vtbt40": "/img/vtbt40/hogback.png",
        "vtbt100": "/img/vtbt100/hogback.png",
        "vtbt200": "/img/vtbt200/hogback.png",
        "selector": "hogback",
        "url":"http://www.hogbackbrew.com/",
        "phone":"802.349.8195",
        "facebook":"https://www.facebook.com/hogbackbrew/",
        "twitter":"https://twitter.com/HOGBACKbrew",
        "googleplus":"",
        "instagram":"https://www.instagram.com/HOGBACKbrew/",
        "advocate": "https://www.beeradvocate.com/beer/profile/44252/",
        "region": "south-central"
    },
    {
        "name": "Hired Hand Brewing",
        "address": "35 Green Street",
        "city":"Vergennes",
        "state": "VT",
        "zip": "05491",
        "latitude": 44.167203,
        "longitude": -73.25113,
        "vtbt40": "/img/vtbt40/hiredhand.png",
        "vtbt100": "/img/vtbt100/hiredhand.png",
        "vtbt200": "/img/vtbt200/hiredhand.png",
        "selector": "hiredhand",
        "url":"http://www.hiredhandbrewing.com/",
        "phone":"802.870.7191",
        "facebook":"https://www.facebook.com/hiredhandbrewing/",
        "twitter":"",
        "googleplus":"",
        "instagram":"http://instagram.com/hiredhandbrewing",
        "advocate": "https://www.beeradvocate.com/beer/profile/47748/",
        "region": "south-central"
    },
    {
        "name": "Idletyme Brewing Co",
        "address": "1859 Mountain Road",
        "city":"Stowe",
        "state": "VT",
        "zip": "05672",
        "latitude": 44.473824,
        "longitude": -72.713977,
        "vtbt40": "/img/vtbt40/idletyme.png",
        "vtbt100": "/img/vtbt100/idletyme.png",
        "vtbt200": "/img/vtbt200/idletyme.png",
        "selector": "idletyme",
        "url":"http://idletymebrewing.com/",
        "phone":"802.253.4765",
        "facebook":"https://www.facebook.com/idletyme",
        "twitter":"",
        "googleplus":"",
        "instagram":"",
        "advocate": "https://www.beeradvocate.com/beer/profile/43069/",
        "region": "north-central"
    },
    {
        "name": "Drop-In Brewing Company",
        "address": "610 Route 7 South",
        "city":"Middlebury",
        "state": "VT",
        "zip": "05753",
        "latitude": 43.9999812,
        "longitude": -73.1487354,
        "vtbt40": "/img/vtbt40/dropin.png",
        "vtbt100": "/img/vtbt100/dropin.png",
        "vtbt200": "/img/vtbt200/dropin.png",
        "selector": "dropin",
        "url":"http://www.dropinbeer.com/",
        "phone":"802.989.7414",
        "facebook":"https://www.facebook.com/dropinbrewing",
        "twitter":"https://twitter.com/#!/dropinbeer",
        "googleplus":"",
        "instagram":"https://www.instagram.com/dropinbeer",
        "advocate": "https://www.beeradvocate.com/beer/profile/30030/",
        "region": "south-central"
    },
    {
        "name": "Fiddlehead Brewing Company",
        "address": "6305 Shelburne Road",
        "city": "Shelburne",
        "state": "VT",
        "zip": "05482",
        "latitude": 44.366199,
        "longitude": -73.232674,
        "vtbt40": "/img/vtbt40/fiddlehead.png",
        "vtbt100": "/img/vtbt100/fiddlehead.png",
        "vtbt200": "/img/vtbt200/fiddlehead.png",
        "selector": "fiddlehead",
        "url":"http://www.fiddleheadbrewing.com/",
        "phone":"802.399.2994",
        "facebook":"https://www.facebook.com/pages/Fiddlehead-Brewing-Company/152040331527610",
        "twitter":"https://twitter.com/fiddleheadbrew",
        "googleplus":"",
        "instagram":"https://www.instagram.com/FiddleheadBrewing",
        "advocate": "https://www.beeradvocate.com/beer/profile/27919/",
        "region": "north-central"
    },
    {
        "name": "Foley Brothers Brewing",
        "address": "79 Stone Mill Dam Road",
        "city": "Brandon",
        "state": "VT",
        "zip": "05733",
        "latitude": 43.810501,
        "longitude": -73.0765,
        "vtbt40": "/img/vtbt40/foleybrothers.png",
        "vtbt100": "/img/vtbt100/foleybrothers.png",
        "vtbt200": "/img/vtbt200/foleybrothers.png",
        "selector": "foleybrothers",
        "url":"",
        "phone":"802.247.8002",
        "facebook":"https://www.facebook.com/FoleyBrothersBrewing",
        "twitter":"https://twitter.com/Foleybrewingvt",
        "googleplus":"",
        "instagram":"",
        "advocate": "https://www.beeradvocate.com/beer/profile/30542/",
        "region": "south-central"
    },
    {
        "name": "Harpoon Brewery",
        "address": "336 Ruth Carney Drive",
        "city": "Windsor",
        "state": "VT",
        "zip": "05089",
        "latitude": 43.512997,
        "longitude": -72.401527,
        "vtbt40": "/img/vtbt40/harpoon.png",
        "vtbt100": "/img/vtbt100/harpoon.png",
        "vtbt200": "/img/vtbt200/harpoon.png",
        "selector": "harpoon",
        "url":"http://www.harpoonbrewery.com/",
        "phone":"802.674.5491",
        "facebook":"https://www.facebook.com/TheHarpoonBrewery",
        "twitter":"http://www.twitter.com/harpoon_brewery",
        "googleplus":"",
        "instagram":"",
        "advocate": "https://www.beeradvocate.com/beer/profile/602/",
        "region": "south-central"
    },
    {
        "name": "Hill Farmstead Brewery",
        "address": "403 Hill Road",
        "city": "Greensboro Bend",
        "state": "VT",
        "zip": "05842",
        "latitude": 44.6072147,
        "longitude": -72.2623024,
        "vtbt40": "/img/vtbt40/hillfarmstead.png",
        "vtbt100": "/img/vtbt100/hillfarmstead.png",
        "vtbt200": "/img/vtbt200/hillfarmstead.png",
        "selector": "hillfarmstead",
        "url":"http://www.hillfarmstead.com/",
        "phone":"802.533.7450",
        "facebook":"https://www.facebook.com/hillfarmstead",
        "twitter":"https://twitter.com/HillFarmstead",
        "googleplus":"",
        "instagram":"",
        "advocate": "https://www.beeradvocate.com/beer/profile/22511/",
        "region": "north"
    },
    {
        "name": "Kingdom Brewing",
        "address": "353 Coburn Hill Road",
        "city": "Newport",
        "state": "VT",
        "zip": "05855",
        "latitude": 44.9315999,
        "longitude": -72.2809754,
        "vtbt40": "/img/vtbt40/kingdombrewing.png",
        "vtbt100": "/img/vtbt100/kingdombrewing.png",
        "vtbt200": "/img/vtbt200/kingdombrewing.png",
        "selector": "kingdombrewing",
        "url":"https://kingdombrewingvt.com/",
        "phone":"802.334.7096",
        "facebook":"https://www.facebook.com/brewing.kingdom",
        "twitter":"https://twitter.com/KBrewing",
        "googleplus":"",
        "instagram":"",
        "advocate": "https://www.beeradvocate.com/beer/profile/30770/",
        "region": "north"
    },
    {
        "name": "Lawsons Finest",
        "address": "284 Main Street",
        "city": "Warren",
        "state": "VT",
        "zip": "05674",
        "latitude": 44.112026,
        "longitude": -72.8562039,
        "vtbt40": "/img/vtbt40/lawsons.png",
        "vtbt100": "/img/vtbt100/lawsons.png",
        "vtbt200": "/img/vtbt200/lawsons.png",
        "selector": "lawsons",
        "url":"http://www.lawsonsfinest.com/",
        "phone":"802.272.8436",
        "facebook":"https://www.facebook.com/LawsonsFinestLiquids",
        "twitter":"https://twitter.com/lawsonsfinest",
        "googleplus":"",
        "instagram":"",
        "advocate": "https://www.beeradvocate.com/beer/profile/17980/",
        "region": "south-central"
    },
    {
        "name": "Long Trail Brewing",
        "address": "5520 Route 4",
        "city": "Bridgewaters Corners",
        "state": "VT",
        "zip": "05035",
        "latitude": 43.58866,
        "longitude": -72.658913,
        "vtbt40": "/img/vtbt40/longtrail.png",
        "vtbt100": "/img/vtbt100/longtrail.png",
        "vtbt200": "/img/vtbt200/longtrail.png",
        "selector": "longtrail",
        "url":"http://www.longtrail.com/",
        "phone":"802.672.5011",
        "facebook":"https://www.facebook.com/pages/Long-Trail-Brewing/142163634919",
        "twitter":"https://twitter.com/LongTrailBrwing",
        "googleplus":"",
        "instagram":"https://www.instagram.com/longtrailbeer",
        "advocate": "https://www.beeradvocate.com/beer/profile/94/",
        "region": "south-central"
    },
    {
        "name": "Madison Brewing",
        "address": "428 Main Street",
        "city": "Bennington",
        "state": "VT",
        "zip": "05201",
        "latitude": 42.8783839,
        "longitude": -73.196419,
        "vtbt40": "/img/vtbt40/madison.png",
        "vtbt100": "/img/vtbt100/madison.png",
        "vtbt200": "/img/vtbt200/madison.png",
        "selector": "madison",
        "url":"http://www.madisonbrewingco.com/",
        "phone":"802.442.7397",
        "facebook":"",
        "twitter":"",
        "googleplus":"",
        "instagram":"",
        "advocate": "https://www.beeradvocate.com/beer/profile/2426/",
        "region": "south"
    },
    {
        "name": "Magic Hat Brewing Company",
        "address": "5 Bartlett Bay Road",
        "city": "South Burlington",
        "state": "VT",
        "zip": "05403",
        "latitude": 44.428405,
        "longitude": -73.213148,
        "vtbt40": "/img/vtbt40/magichat.png",
        "vtbt100": "/img/vtbt100/magichat.png",
        "vtbt200": "/img/vtbt200/magichat.png",
        "selector": "magichat",
        "url":"http://www.magichat.net/",
        "phone":"802.658.2739",
        "facebook":"https://www.facebook.com/magichatbrewing",
        "twitter":"https://twitter.com/magichat",
        "googleplus":"",
        "instagram":"",
        "advocate": "https://www.beeradvocate.com/beer/profile/96/",
        "region": "north-central"
    },
    {
        "name": "McNeills Pub and Brewery",
        "address": "90 Elliot Street",
        "city": "Brattleboro",
        "state": "VT",
        "zip": "05301",
        "latitude": 42.851552,
        "longitude": -72.560164,
        "vtbt40": "/img/vtbt40/mcneills.png",
        "vtbt100": "/img/vtbt100/mcneills.png",
        "vtbt200": "/img/vtbt200/mcneills.png",
        "selector": "mcneills",
        "url":"http://www.mcneillsbrewery.com/",
        "phone":"802.254.2553",
        "facebook":"https://www.facebook.com/McNeillsBrewery",
        "twitter":"https://twitter.com/hereforthebeer",
        "googleplus":"",
        "instagram":"",
        "advocate": "",
        "region": "south"
    },
    {
        "name": "Northshire Brewery",
        "address": "108 County Street",
        "city": "Bennington",
        "state": "VT",
        "zip": "05201",
        "latitude": 42.844954,
        "longitude": -73.2011993,
        "vtbt40": "/img/vtbt40/northshire.png",
        "vtbt100": "/img/vtbt100/northshire.png",
        "vtbt200": "/img/vtbt200/northshire.png",
        "selector": "northshire",
        "url":"http://www.northshirebrewery.org/",
        "phone":"802.681.0201",
        "facebook":"https://www.facebook.com/NorthshireBrewery",
        "twitter":"https://twitter.com/northshirebrew",
        "googleplus":"",
        "instagram":"",
        "advocate": "https://www.beeradvocate.com/beer/profile/22466/",
        "region": "south"
    },
    {
        "name": "Jasper Murdock's Ale House",
        "address": "325 Main Street",
        "city": "Norwich",
        "state": "VT",
        "zip": "05055",
        "latitude": 43.7151179,
        "longitude": -72.308907,
        "vtbt40": "/img/vtbt40/murdocks.png",
        "vtbt100": "/img/vtbt100/murdocks.png",
        "vtbt200": "/img/vtbt200/murdocks.png",
        "selector": "murdocks",
        "url":"http://www.norwichinn.com/",
        "phone":"802.649.1143",
        "facebook":"https://www.facebook.com/pages/Norwich-Inn-Norwich-Vt/98695894945",
        "twitter":"https://twitter.com/norwichinn",
        "googleplus":"",
        "instagram":"",
        "advocate": "https://www.beeradvocate.com/beer/profile/343/",
        "region": "south-central"
    },
    {
        "name": "Otter Creek Brewing",
        "address": "793 Exchange Street",
        "city": "Middlebury",
        "state": "VT",
        "zip": "05753",
        "latitude": 44.019665,
        "longitude": -73.169251,
        "vtbt40": "/img/vtbt40/ottercreek.png",
        "vtbt100": "/img/vtbt100/ottercreek.png",
        "vtbt200": "/img/vtbt200/ottercreek.png",
        "selector": "ottercreek",
        "url":"http://www.ottercreekbrewing.com/",
        "phone":"802.388.0727",
        "facebook":"https://www.facebook.com/pages/Otter-Creek-Brewery/137425442977971",
        "twitter":"https://twitter.com/OtterCreekBrew",
        "googleplus":"",
        "instagram":"https://www.instagram.com/ottercreekbeer",
        "advocate": "https://www.beeradvocate.com/beer/profile/119/",
        "region": "south-central"
    },
    {
        "name": "Rock Art Brewery",
        "address": "632 Laport Road",
        "city": "Morrisville",
        "state": "VT",
        "zip": "05661",
        "latitude": 44.558011,
        "longitude": -72.608794,
        "vtbt40": "/img/vtbt40/rockart.png",
        "vtbt100": "/img/vtbt100/rockart.png",
        "vtbt200": "/img/vtbt200/rockart.png",
        "selector": "rockart",
        "url":"http://www.rockartbrewery.com/",
        "phone":"802.888.9400",
        "facebook":"https://www.facebook.com/pages/Rock-Art-Brewery/98108048941",
        "twitter":"https://twitter.com/rockartbrewery",
        "googleplus":"",
        "instagram":"",
        "advocate": "https://www.beeradvocate.com/beer/profile/1805/",
        "region": "north-central"
    },
    {
        "name": "Switchback Brewing",
        "address": "160 Flynn Avenue",
        "city": "Burlington",
        "state": "VT",
        "zip": "05401",
        "latitude": 44.456184,
        "longitude": -73.220686,
        "vtbt40": "/img/vtbt40/switchback.png",
        "vtbt100": "/img/vtbt100/switchback.png",
        "vtbt200": "/img/vtbt200/switchback.png",
        "selector": "switchback",
        "url":"http://switchbackvt.com/",
        "phone":"802.651.4114",
        "facebook":"https://www.facebook.com/SwitchbackBeer",
        "twitter":"",
        "googleplus":"https://plus.google.com/100869900531801925081/about?gl=us&hl=en",
        "instagram":"https://www.instagram.com/switchbackbeer/",
        "advocate": "https://www.beeradvocate.com/beer/profile/5691/",
        "region":"north-central"
    },
    {
        "name": "von Trapp Brewing",
        "address": "1333 Luce Hill Road",
        "city": "Stowe",
        "state": "VT",
        "zip": "05672",
        "latitude": 44.4704194,
        "longitude": -72.7352263,
        "vtbt40": "/img/vtbt40/trappfamily.png",
        "vtbt100": "/img/vtbt100/trappfamily.png",
        "vtbt200": "/img/vtbt200/trappfamily.png",
        "selector": "trappfamily",
        "url":"http://www.vontrappbrewing.com/",
        "phone":"802.253.5750",
        "facebook":"https://www.facebook.com/vontrappbrewing/",
        "twitter":"http://twitter.com/vonTrappBrewing",
        "googleplus":"",
        "instagram":"http://instagram.com/vontrappbrewing",
        "advocate": "https://www.beeradvocate.com/beer/profile/22512/",
        "region": "north-central"
    },
    {
        "name": "Whetstone Station",
        "address": "36 Bridge Street",
        "city": "Brattleboro",
        "state": "VT",
        "zip": "05301",
        "latitude": 42.8515937,
        "longitude": -72.5565434,
        "vtbt40": "/img/vtbt40/whetstonebeer.png",
        "vtbt100": "/img/vtbt100/whetstonebeer.png",
        "vtbt200": "/img/vtbt200/whetstonebeer.png",
        "selector": "whetstonebeer",
        "url":"https://www.whetstonebeer.com/station/",
        "phone":"802.490.2354",
        "facebook":"http://www.facebook.com/whetstonestation",
        "twitter":"http://www.twitter.com/whetstonebeer",
        "googleplus":"https://plus.google.com/113100977153373615113",
        "instagram":"",
        "advocate": "https://www.beeradvocate.com/beer/profile/29616/",
        "region": "south"
    },
    {
        "name": "Vermont Pub and Brewery",
        "address": "144 College Street",
        "city": "Burlington",
        "state": "VT",
        "zip": "05401",
        "latitude": 44.477262,
        "longitude": -73.214394,
        "vtbt40": "/img/vtbt40/vpb.png",
        "vtbt100": "/img/vtbt100/vpb.png",
        "vtbt200": "/img/vtbt200/vpb.png",
        "selector": "vpb",
        "url":"http://www.vermontbrewery.com/",
        "phone":"802.865.0500",
        "facebook":"https://www.facebook.com/VermontPubandBrewery",
        "twitter":"",
        "googleplus":"",
        "instagram":"https://www.instagram.com/VTPubandBrew/",
        "advocate": "https://www.beeradvocate.com/beer/profile/860/",
        "region":"north-central"
    },
    {
        "name": "Zero Gravity Craft Brewery",
        "address": "115 St. Paul Street",
        "city": "Burlington",
        "state": "VT",
        "zip": "05401",
        "latitude": 44.476553,
        "longitude": -73.214154,
        "vtbt40": "/img/vtbt40/zerogravity.png",
        "vtbt100": "/img/vtbt100/zerogravity.png",
        "vtbt200": "/img/vtbt200/zerogravity.png",
        "selector": "zerogravity",
        "url":"http://www.zerogravitybeer.com/",
        "phone":"802.861.2999",
        "facebook":"https://www.facebook.com/pages/Zero-Gravity-Craft-Brewery/332441423441087",
        "twitter":"https://twitter.com/zerogravitybeer",
        "googleplus":"",
        "instagram":"https://www.instagram.com/Zerogravitybeer",
        "advocate": "https://www.beeradvocate.com/beer/profile/9784/",
        "region":"north-central"
    },
    {
        "name": "Stone Corral Brewery",
        "address": "83 Huntington Road",
        "city": "Richmond",
        "state": "VT",
        "zip": "05477",
        "latitude": 44.398887,
        "longitude":  -73.0015183,
        "vtbt40": "/img/vtbt40/stonecorral.png",
        "vtbt100": "/img/vtbt100/stonecorral.png",
        "vtbt200": "/img/vtbt200/stonecorral.png",
        "selector": "stonecorral",
        "url":"http://www.stonecorral.com/",
        "phone":"802.434.5787",
        "facebook":"https://www.facebook.com/stonecorralbrewery",
        "twitter":"",
        "googleplus":"https://plus.google.com/115438243512334076874/about?hl=en",
        "instagram":"",
        "advocate": "https://www.beeradvocate.com/beer/profile/32783/",
        "region": "north-central"
    },
    {
        "name": "1st Republic Brewing Company",
        "address": "39 River Road, Suite 6",
        "city": "Essex Junction",
        "state": "VT",
        "zip": "05452",
        "latitude": 44.4837305,
        "longitude": -73.0844929,
        "vtbt40": "/img/vtbt40/firstrepublic.png",
        "vtbt100": "/img/vtbt100/firstrepublic.png",
        "vtbt200": "/img/vtbt200/firstrepublic.png",
        "selector": "firstrepublic",
        "url":"http://www.1strepublicbrewingco.com/",
        "phone":"802.857.5318",
        "facebook":"https://www.facebook.com/1stRepublicBrewingCo/timeline",
        "twitter":"",
        "googleplus":"",
        "instagram":"",
        "advocate": "https://www.beeradvocate.com/beer/profile/39840/",
        "region": "north-central"
    },
    {
        "name": "Burlington Beer Company",
        "address": "25 Omega Drive, Suite 150",
        "city": "Williston",
        "state": "VT",
        "zip": "05495",
        "latitude": 44.44783,
        "longitude":  -73.126007,
        "vtbt40": "/img/vtbt40/burlington.png",
        "vtbt100": "/img/vtbt100/burlington.png",
        "vtbt200": "/img/vtbt200/burlington.png",
        "selector": "burlington",
        "url":"http://www.burlingtonbeercompany.com/",
        "phone":"802.863.2337",
        "facebook":"https://www.facebook.com/burlingtonbeer",
        "twitter":"https://twitter.com/BurlingtonBeer",
        "googleplus":"https://plus.google.com/108562682292716116095/about?hl=en",
        "instagram":"",
        "advocate": "https://www.beeradvocate.com/beer/profile/33136/",
        "region": "north-central"
    },
    {
        "name": "Prohibition Pig",
        "address": "23 South Main Street",
        "city": "Waterbury",
        "state": "VT",
        "zip": "05676",
        "latitude": 44.3371855,
        "longitude":  -72.7560293,
        "vtbt40": "/img/vtbt40/propig.png",
        "vtbt100": "/img/vtbt100/propig.png",
        "vtbt200": "/img/vtbt200/propig.png",
        "selector": "propig",
        "url":"http://www.prohibitionpig.com",
        "phone":"802.244.4120",
        "facebook":"https://www.facebook.com/prohibitionpig",
        "twitter":"https://twitter.com/ProhibitionPig",
        "googleplus":"",
        "instagram":"",
        "advocate": "https://www.beeradvocate.com/beer/profile/28663/",
        "region": "north-central"
    },
    {
        "name": "Four Quarters Brewing",
        "address": "150 West Canal Street",
        "city": "Winooski",
        "state": "VT",
        "zip": "05404",
        "latitude": 44.490157,
        "longitude":  -73.192018,
        "vtbt40": "/img/vtbt40/fourquarters.png",
        "vtbt100": "/img/vtbt100/fourquarters.png",
        "vtbt200": "/img/vtbt200/fourquarters.png",
        "selector": "fourquarters",
        "url":"http://www.fourquartersbrewing.com/",
        "phone":"802.862.0775",
        "facebook":"https://www.facebook.com/FourQuartersBrewing",
        "twitter":"http://www.twitter.com/4quartersbrew",
        "googleplus":"https://plus.google.com/109969977542498061735/about",
        "instagram":"https://www.instagram.com/4quartersbrew",
        "advocate": "https://www.beeradvocate.com/beer/profile/34222/",
        "region": "north-central"
    },
    {
        "name": "Queen City Brewery",
        "address": "703B Pine Street",
        "city": "Burlington",
        "state": "VT",
        "zip": "05401",
        "latitude": 44.4594923,
        "longitude":  -73.2150952,
        "vtbt40": "/img/vtbt40/queencity.png",
        "vtbt100": "/img/vtbt100/queencity.png",
        "vtbt200": "/img/vtbt200/queencity.png",
        "selector": "queencity",
        "url":"http://queencitybrewery.com/",
        "phone":"802.540.0280",
        "facebook":"http://www.facebook.com/QueenCityBrewery",
        "twitter":"https://twitter.com/QueenCtyBrewery",
        "googleplus":"",
        "instagram":"",
        "advocate": "https://www.beeradvocate.com/beer/profile/33137/",
        "region": "north-central"
    },
    {
        "name": "Hop'n Moose Brewing Co.",
        "address": "41 Center Street",
        "city": "Rutland",
        "state": "VT",
        "zip": "05701",
        "latitude": 43.6067008,
        "longitude":  -72.9775604,
        "vtbt40": "/img/vtbt40/hopnmoose.png",
        "vtbt100": "/img/vtbt100/hopnmoose.png",
        "vtbt200": "/img/vtbt200/hopnmoose.png",
        "selector": "hopnmoose",
        "url":"http://www.hopnmoose.com/",
        "phone":"802.775.7063",
        "facebook":"https://www.facebook.com/hopn.moose",
        "twitter":"https://twitter.com/HopnMoose",
        "googleplus":"",
        "instagram":"",
        "advocate": "https://www.beeradvocate.com/beer/profile/37304/",
        "region": "south-central"
    },
    {
        "name": "Bent Hill Brewery",
        "address": "1972 Bent Hill Road",
        "city": "Braintree Hill",
        "state": "VT",
        "zip": "05060",
        "latitude": 43.98138,
        "longitude":  -72.720955,
        "vtbt40": "/img/vtbt40/benthill.png",
        "vtbt100": "/img/vtbt100/benthill.png",
        "vtbt200": "/img/vtbt200/benthill.png",
        "selector": "benthill",
        "url":"http://www.benthillbrewery.com/",
        "phone":"802.249.1125",
        "facebook":"https://www.facebook.com/BentHillBrewery",
        "twitter":"https://twitter.com/BentHillBrewery",
        "googleplus":"",
        "instagram":"",
        "advocate": "https://www.beeradvocate.com/beer/profile/36100/",
        "region": "south-central"
    },
    {
        "name": "Frost Beer Works",
        "address": "171 Commerce Street",
        "city": "Hinesburg",
        "state": "VT",
        "zip": "05461",
        "latitude": 44.335381,
        "longitude":  -73.108999,
        "vtbt40": "/img/vtbt40/frostbeer.png",
        "vtbt100": "/img/vtbt100/frostbeer.png",
        "vtbt200": "/img/vtbt200/frostbeer.png",
        "selector": "frostbeer",
        "url":"http://www.frostbeerworks.com/",
        "phone":"949.945.4064",
        "facebook":"",
        "twitter":"",
        "googleplus":"",
        "instagram":"https://www.instagram.com/frost.beer.works",
        "advocate": "https://www.beeradvocate.com/beer/profile/39297/",
        "region": "north-central"
    },
    {
        "name": "J'Ville Brewery",
        "address": "201 Route 112",
        "city": "Jacksonville",
        "state": "VT",
        "zip": "05342",
        "latitude": 42.794545,
        "longitude":  -72.819907,
        "vtbt40": "/img/vtbt40/jville.png",
        "vtbt100": "/img/vtbt100/jville.png",
        "vtbt200": "/img/vtbt200/jville.png",
        "selector": "jville",
        "url":"http://www.jvillebrewery.com/",
        "phone":"802.368.2226",
        "facebook":"https://www.facebook.com/jvillebrewery",
        "twitter":"",
        "googleplus":"",
        "instagram":"",
        "advocate": "https://www.beeradvocate.com/beer/profile/42938/",
        "region": "south"
    },
    {
        "name": "Goodwater Brewery",
        "address": "740 Marshall Avenue",
        "city": "Williston",
        "state": "VT",
        "zip": "05495",
        "latitude": 44.4455598,
        "longitude":  -73.1266156,
        "vtbt40": "/img/vtbt40/goodwater.png",
        "vtbt100": "/img/vtbt100/goodwater.png",
        "vtbt200": "/img/vtbt200/goodwater.png",
        "selector": "goodwater",
        "url":"http://www.goodwaterbreweryvt.com/",
        "phone":"802.999.7396",
        "facebook":"https://www.facebook.com/Good-Water-Brewery-353993028073567/",
        "twitter":"",
        "googleplus":"",
        "instagram":"https://www.instagram.com/goodwaterbrewing/",
        "advocate": "https://www.beeradvocate.com/beer/profile/44376/",
        "region": "north-central"
    },
    {
        "name": "Brewster River Pub and Brewery",
        "address": "4087 Route 108 South",
        "city": "Jeffersonville",
        "state": "VT",
        "zip": "05464",
        "latitude": 44.5911324,
        "longitude":  -72.7933355,
        "vtbt40": "/img/vtbt40/brewsterriver.png",
        "vtbt100": "/img/vtbt100/brewsterriver.png",
        "vtbt200": "/img/vtbt200/brewsterriver.png",
        "selector": "brewsterriver",
        "url":"http://www.brewsterriverpubnbrewery.com/",
        "phone":"802.644.6366",
        "facebook":"https://www.facebook.com/Brewsterriverpeeps",
        "twitter":"https://twitter.com/BrewRiverPub",
        "googleplus":"",
        "instagram":"",
        "advocate": "https://www.beeradvocate.com/beer/profile/33135/",
        "region": "north-central"
    },
    {
        "name": "Trout River Brewing Company",
        "address": "100 River Street",
        "city": "Springfield",
        "state": "VT",
        "zip": "05156",
        "latitude": 43.3015632,
        "longitude": -72.4867228,
        "vtbt40": "/img/vtbt40/troutriver.png",
        "vtbt100": "/img/vtbt100/troutriver.png",
        "vtbt200": "/img/vtbt200/troutriver.png",
        "selector": "troutriver",
        "url":"http://www.troutriverbrewing.com/",
        "phone":"802.345.2756",
        "facebook":"https://www.facebook.com/troutriverbrewery",
        "twitter":"",
        "googleplus":"https://plus.google.com/+Troutriverbrewingco",
        "instagram":"https://www.instagram.com/troutriverbrewery/",
        "advocate": "https://www.beeradvocate.com/beer/profile/45019/",
        "region": "south-central"
    },
    {
        "name": "Foam Brewers",
        "address": "112 Lake Street",
        "city": "Burlington",
        "state": "VT",
        "zip": "05401",
        "latitude": 44.4790851,
        "longitude": -73.2199836,
        "vtbt40": "/img/vtbt40/foambrewers.png",
        "vtbt100": "/img/vtbt100/foambrewers.png",
        "vtbt200": "/img/vtbt200/foambrewers.png",
        "selector": "foambrewers",
        "url":"http://www.foambrewers.com/",
        "phone":"802.399.2511",
        "facebook":"https://www.facebook.com/FoamBrewers",
        "twitter":"",
        "googleplus":"",
        "instagram":"https://www.instagram.com/foambrewers/",
        "advocate": "https://www.beeradvocate.com/beer/profile/45496/",
        "region": "north-central"
    },
    {
        "name": "Brocklebank Craft Brewing",
        "address": "357 Dickerman Hill Road",
        "city": "Tunbridge",
        "state": "VT",
        "zip": "05077",
        "latitude": 43.965748,
        "longitude": -72.5101787,
        "vtbt40": "/img/vtbt40/brocklebank.png",
        "vtbt100": "/img/vtbt100/brocklebank.png",
        "vtbt200": "/img/vtbt200/brocklebank.png",
        "selector": "brocklebank",
        "url":"http://www.brocklebankvt.com/",
        "phone":"802.685.4838",
        "facebook":"https://www.facebook.com/brocklebankvt/",
        "twitter":"",
        "googleplus":"",
        "instagram":"",
        "advocate": "https://www.beeradvocate.com/beer/profile/38743/",
        "region": "south-central"
    },
    {
        "name": "River Roost Brewery",
        "address": "230 South Main Street",
        "city": "White River Junction",
        "state": "VT",
        "zip": "05001",
        "latitude": 43.6454244,
        "longitude": -72.318524,
        "vtbt40": "/img/vtbt40/riverroost.png",
        "vtbt100": "/img/vtbt100/riverroost.png",
        "vtbt200": "/img/vtbt200/riverroost.png",
        "selector": "riverroost",
        "url":"http://www.riverroostbrewery.com/",
        "phone":"",
        "facebook":"https://www.facebook.com/River-Roost-Brewery-820676564698012/",
        "twitter":"https://twitter.com/RiverRoostVT",
        "googleplus":"",
        "instagram":"",
        "advocate": "https://www.beeradvocate.com/beer/profile/44112/",
        "region": "south-central"
    },
    {
        "name": "House of Fermentology",
        "address": "777 Pine Street",
        "city": "Burlington",
        "state": "VT",
        "zip": "05401",
        "latitude": 44.4579589,
        "longitude": -73.2169994,
        "vtbt40": "/img/vtbt40/housefermentology.png",
        "vtbt100": "/img/vtbt100/housefermentology.png",
        "vtbt200": "/img/vtbt200/housefermentology.png",
        "selector": "housefermentology",
        "url":"http://www.houseoffermentology.com/",
        "phone":"802.863.4938",
        "facebook":"https://www.facebook.com/House-of-Fermentology-498323433676425/",
        "twitter":"",
        "googleplus":"",
        "instagram":"https://www.instagram.com/houseoffermentology/",
        "advocate": "https://www.beeradvocate.com/beer/profile/52964/",
        "region":"north-central"
    },
    {
        "name": "St J Brewery",
        "address": "2002 Memorial Drive",
        "city": "St Johnsbury",
        "state": "VT",
        "zip": "05819",
        "latitude": 44.460984,
        "longitude":  -72.013465,
        "vtbt40": "/img/vtbt40/saintj.png",
        "vtbt100": "/img/vtbt100/saintj.png",
        "vtbt200": "/img/vtbt200/saintj.png",
        "selector": "saintj",
        "url":"http://www.saintjbrewery.com/",
        "phone":"802.424.1700",
        "facebook":"https://www.facebook.com/saintjbrewery/",
        "twitter":"",
        "googleplus":"",
        "instagram":"",
        "advocate": "",
        "region": "north"
    },
    {
        "name": "Ten Bends Beer",
        "address": "590 East Main Street",
        "city": "Hyde Park",
        "state": "VT",
        "zip": "05655",
        "latitude": 44.588488,
        "longitude": -72.60572,
        "vtbt40": "/img/vtbt40/tenbends.png",
        "vtbt100": "/img/vtbt100/tenbends.png",
        "vtbt200": "/img/vtbt200/tenbends.png",
        "selector": "tenbends",
        "url":"http://tenbendsbeer.com/",
        "phone":"802.521.7139",
        "facebook":"https://facebook.com/tenbendsbeer",
        "twitter":"https://twitter.com/tenbendsbeer",
        "googleplus":"",
        "instagram":"https://instagram.com/tenbendsbeer",
        "advocate": "https://www.beeradvocate.com/beer/profile/46703/",
        "region": "north-central"
    },
    {
        "name": "Farnham Ale and Lager",
        "address": "82 Ethan Allen Drive",
        "city": "South Burlington",
        "state": "VT",
        "zip": "05403",
        "latitude": 44.4831769,
        "longitude": -73.1569128,
        "vtbt40": "/img/vtbt40/farnham.png",
        "vtbt100": "/img/vtbt100/farnham.png",
        "vtbt200": "/img/vtbt200/farnham.png",
        "selector": "farnham",
        "url":"http://www.farnham-alelager.com/",
        "phone":"802.497.1588",
        "facebook":"https://www.facebook.com/farnhamalelager",
        "twitter":"",
        "googleplus":"",
        "instagram":"",
        "advocate": "https://www.beeradvocate.com/beer/profile/50815/",
        "region": "north-central"
    },
    {
        "name": "Red Barn Brewing",
        "address": "2170 Oneida Road",
        "city": "Danville",
        "state": "VT",
        "zip": "05828",
        "latitude": 44.3945905,
        "longitude":  -72.177609,
        "vtbt40": "/img/vtbt40/redbarn.png",
        "vtbt100": "/img/vtbt100/redbarn.png",
        "vtbt200": "/img/vtbt200/redbarn.png",
        "selector": "redbarn",
        "url":"http://www.redbarnbrewingvt.com/",
        "phone":"802.684.9749",
        "facebook":"http://www.facebook.com/redbarnbrewingvt",
        "twitter":"",
        "googleplus":"",
        "instagram":"",
        "advocate": "https://www.beeradvocate.com/beer/profile/48412/",
        "region": "north"
    },
    {
        "name": "Good Measure Brewing",
        "address": "17 East Street",
        "city": "Northfield",
        "state": "VT",
        "zip": "05663",
        "latitude": 44.1488856,
        "longitude": -72.6557656,
        "vtbt40": "/img/vtbt40/goodmeasure.png",
        "vtbt100": "/img/vtbt100/goodmeasure.png",
        "vtbt200": "/img/vtbt200/goodmeasure.png",
        "selector": "goodmeasure",
        "url":"http://www.goodmeasurebrewing.com/",
        "phone":"802.485.4600",
        "facebook":"https://www.facebook.com/goodmeasurebrewingco/",
        "twitter":"https://twitter.com/goodmeasurebeer",
        "googleplus":"",
        "instagram":"http://instagram.com/goodmeasurebeer",
        "advocate": "https://www.beeradvocate.com/beer/profile/43995/",
        "region": "south-central"
    },
    {
        "name": "Beer Naked Brewery",
        "address": "7678 RT 9",
        "city": "Marlboro",
        "state": "VT",
        "zip": "05363",
        "latitude": 42.853184,
        "longitude": -72.793594,
        "vtbt40": "/img/vtbt40/beernaked.png",
        "vtbt100": "/img/vtbt100/beernaked.png",
        "vtbt200": "/img/vtbt200/beernaked.png",
        "selector": "beernaked",
        "url":"http://www.beernakedbrewery.com/",
        "phone":"802.464.7702",
        "facebook":"https://www.facebook.com/BNBrewery/",
        "twitter":"https://twitter.com/beer_naked",
        "googleplus":"",
        "instagram":"https://www.instagram.com/explore/locations/277019814/",
        "advocate": "https://www.beeradvocate.com/beer/profile/44111/",
        "region": "south"
    },
    {
        "name": "Cousins Brewing",
        "address": "9 Route 17",
        "city": "Waitsfield",
        "state": "VT",
        "zip": "05673",
        "latitude": 44.1807768,
        "longitude": -72.8431229,
        "vtbt40": "/img/vtbt40/cousins.png",
        "vtbt100": "/img/vtbt100/cousins.png",
        "vtbt200": "/img/vtbt200/cousins.png",
        "selector": "cousins",
        "url":"",
        "phone":"802.496.5623",
        "facebook":"https://www.facebook.com/Localfolk-Smokehouse-53708231556/",
        "twitter":"",
        "googleplus":"",
        "instagram":"",
        "advocate": "https://www.beeradvocate.com/beer/profile/51302/",
        "region": "south-central"
    },
    {
        "name": "Kickback Brewing",
        "address": "1713 Route 128",
        "city": "Westford",
        "state": "VT",
        "zip": "05494",
        "latitude": 44.612086,
        "longitude": -73.011004,
        "vtbt40": "/img/vtbt40/kickback.png",
        "vtbt100": "/img/vtbt100/kickback.png",
        "vtbt200": "/img/vtbt200/kickback.png",
        "selector": "kickback",
        "url":"http://www.kickbackbrewery.com/",
        "phone":"802.999.4997",
        "facebook":"https://www.facebook.com/Kickbackbrewery/",
        "twitter":"https://twitter.com/KickBackBrewery",
        "googleplus":"",
        "instagram":"",
        "advocate": "",
        "region": "north-central"
    },
    {
        "name": "Mill River Brewing",
        "address": "10 Beauregard Drive",
        "city": "St Albans",
        "state": "VT",
        "zip": "05478",
        "latitude": 44.811649,
        "longitude": -73.1037202,
        "vtbt40": "/img/vtbt40/millriver.png",
        "vtbt100": "/img/vtbt100/millriver.png",
        "vtbt200": "/img/vtbt200/millriver.png",
        "selector": "millriver",
        "url":"https://www.millriverbrewing.com/",
        "phone":"802.582.4182",
        "facebook":"https://www.facebook.com/MillRiverBrewing/",
        "twitter":"https://twitter.com/millriverbrews",
        "googleplus":"",
        "instagram":"http://instagram.com/millriverbrewing",
        "advocate": "https://www.beeradvocate.com/beer/profile/50574/",
        "region": "north-central"
    },
    {
        "name": "Next Trick Brewing",
        "address": "2370 Route 5",
        "city": "West Burke",
        "state": "VT",
        "zip": "05871",
        "latitude": 44.6188084,
        "longitude": -71.9715875,
        "vtbt40": "/img/vtbt40/nexttrick.png",
        "vtbt100": "/img/vtbt100/nexttrick.png",
        "vtbt200": "/img/vtbt200/nexttrick.png",
        "selector": "nexttrick",
        "url":"http://www.nexttrickbrewing.com/",
        "phone":"802.467.3437",
        "facebook":"http://www.facebook.com/NextTrickBrewing/",
        "twitter":"https://twitter.com/nexttrickbrew",
        "googleplus":"",
        "instagram":"",
        "advocate": "https://www.beeradvocate.com/beer/profile/49601/",
        "region": "north"
    },
    {
        "name": "Rutland Beer Works",
        "address": "136 Granger Street",
        "city": "Rutland",
        "state": "VT",
        "zip": "05701",
        "latitude": 43.6001805,
        "longitude": -72.9793196,
        "vtbt40": "/img/vtbt40/rutland.png",
        "vtbt100": "/img/vtbt100/rutland.png",
        "vtbt200": "/img/vtbt200/rutland.png",
        "selector": "rutland",
        "url":"https://rutland-beer-works.business.site/",
        "phone":"802.665.7794",
        "facebook":"https://www.facebook.com/rutlandbeerworks/",
        "twitter":"https://twitter.com/rutlandbeerwrx",
        "googleplus":"",
        "instagram":"",
        "advocate": "https://www.beeradvocate.com/beer/profile/52065/",
        "region": "south-central"
    },
    {
        "name": "Green Empire Brewing",
        "address": "478 Hegeman Avenue",
        "city": "Colchester",
        "state": "VT",
        "zip": "05446",
        "latitude": 44.5037372,
        "longitude": -73.1527767,
        "vtbt40": "/img/vtbt40/greenempire.png",
        "vtbt100": "/img/vtbt100/greenempire.png",
        "vtbt200": "/img/vtbt200/greenempire.png",
        "selector": "greenempire",
        "facebook":"https://www.facebook.com/greenempirebrewing/",
        "googleplus":"",
        "instagram":"https://www.instagram.com/greenempirebrewing/",
        "advocate": "https://www.beeradvocate.com/beer/profile/51090/",
        "region": "north-central"
    },
    {
        "name": "Red Clover Ale Co.",
        "address": "43 Center Street",
        "city": "Brandon",
        "state": "VT",
        "zip": "05733",
        "latitude": 43.799560,
        "longitude": -73.088720,
        "vtbt40": "/img/vtbt40/redclover.png",
        "vtbt100": "/img/vtbt100/redclover.png",
        "vtbt200": "/img/vtbt200/redclover.png",
        "selector": "redclover",
        "url": "http://redcloverale.com/",
        "phone":"802.465.8412",
        "facebook":"https://www.facebook.com/redcloveralecompany/",
        "googleplus":"",
        "instagram":"https://www.instagram.com/redcloveralecompany/",
        "advocate": "https://www.beeradvocate.com/beer/profile/54548/",
        "region": "south-central"
    },
    {
        "name": "Liambru Tasty",
        "address": "17 Oak Street",
        "city": "Proctor",
        "state": "VT",
        "zip": "05765",
        "latitude": 43.6600925,
        "longitude": -73.0292223,
        "vtbt40": "/img/vtbt40/liambru.png",
        "vtbt100": "/img/vtbt100/liambru.png",
        "vtbt200": "/img/vtbt200/liambru.png",
        "selector": "liambru",
        "url": "http://liambrutasty.com/",
        "phone":"802.342.2537",
        "facebook":"https://www.facebook.com/LiambruTasty/",
        "googleplus":"",
        "instagram":"https://www.instagram.com/liambrutasty/",
        "advocate": "https://www.beeradvocate.com/beer/profile/55664/",
        "region": "south-central"
    },
    {
        "name": "Freak Folk Bier",
        "address": "703 Pine Street",
        "city": "Burlington",
        "state": "VT",
        "zip": "05401",
        "latitude": 44.4594923,
        "longitude":  -73.2150952,
        "vtbt40": "/img/vtbt40/freak.png",
        "vtbt100": "/img/vtbt100/freak.png",
        "vtbt200": "/img/vtbt200/freak.png",
        "selector": "freak",
        "url":"https://www.freakfolkbier.com/",
        "phone":"",
        "facebook":"https://www.facebook.com/Freak-Folk-Bier-713379862354831/",
        "twitter":"",
        "googleplus":"",
        "instagram":"",
        "advocate": "",
        "region":"north-central"
    },
    {
        "name": "Snow Republic Brewing",
        "address": "33 VT Rt 100",
        "city": "West Dover",
        "state": "VT",
        "zip": "05356",
        "latitude": 42.924910,
        "longitude":  -72.846760,
        "vtbt40": "/img/vtbt40/snowrepublic.png",
        "vtbt100": "/img/vtbt100/snowrepublic.png",
        "vtbt200": "/img/vtbt200/snowrepublic.png",
        "selector": "snowrepublic",
        "url":"https://snowrepublicbrewery.com/",
        "phone":"802.222.0932",
        "facebook":"https://www.facebook.com/pages/category/Brewery/Snow-Republic-Brewery-363865774214142/",
        "twitter":"",
        "googleplus":"",
        "instagram":"https://www.instagram.com/snowrepublicbrewery/",
        "advocate": "",
        "region": "south"
    },
    {
        "name": "Outer Limits Brewing",
        "address": "60 Village Green",
        "city": "Proctorsville",
        "state": "VT",
        "zip": "05153",
        "latitude": 43.381790,
        "longitude":  -72.638260,
        "vtbt40": "/img/vtbt40/outerlimits.png",
        "vtbt100": "/img/vtbt100/outerlimits.png",
        "vtbt200": "/img/vtbt200/outerlimits.png",
        "selector": "outerlimits",
        "url":"https://www.outerlimitsbrewing.com/",
        "phone":"802.287.6100",
        "facebook":"https://www.facebook.com/OuterLimitsBrewing/",
        "twitter":"",
        "googleplus":"",
        "instagram":"https://www.instagram.com/outerlimitsbrewing/",
        "advocate": "https://www.beeradvocate.com/beer/profile/53694/",
        "region": "south-central"
    },
    {
        "name": "Lucy and Howe Brewing",
        "address": "7 Mill Street",
        "city": "Jericho",
        "state": "VT",
        "zip": "05465",
        "latitude": 44.505424,
        "longitude":   -72.99658,
        "vtbt40": "/img/vtbt40/lucyhowe.png",
        "vtbt100": "/img/vtbt100/lucyhowe.png",
        "vtbt200": "/img/vtbt200/lucyhowe.png",
        "selector": "lucyhowe",
        "url":"https://www.lucyandhowebrewing.com/",
        "phone":"802.232.2588",
        "facebook":"https://www.facebook.com/lucyandhowebrewing",
        "twitter":"https://twitter.com/lucyandhowebrew",
        "googleplus":"",
        "instagram":"https://www.instagram.com/lucyandhowebrewing/",
        "advocate": "",
        "region": "north-central"
    },
    {
        "name": "Weird Window Brewing",
        "address": "82 Ethan Allen Drive, Suite A",
        "city": "South Burlington",
        "state": "VT",
        "zip": "05403",
        "latitude": 44.48285,
        "longitude": -73.1541,
        "vtbt40": "/img/vtbt40/weirdwindow.png",
        "vtbt100": "/img/vtbt100/weirdwindow.png",
        "vtbt200": "/img/vtbt200/weirdwindow.png",
        "selector": "weirdwindow",
        "url":"https://www.weirdwindowbrewing.com/",
        "phone":"802.489.5279",
        "facebook":"https://www.facebook.com/weirdwindowbrewing/",
        "twitter":"",
        "googleplus":"",
        "instagram":"https://www.instagram.com/weirdwindowbrewing/",
        "advocate": "https://www.beeradvocate.com/beer/profile/58364/",
        "region": "north-central"
    },
    {
        "name": "Black Flannel Brewing",
        "address": "21 Essex Way, #201",
        "city": "Essex Junction",
        "state": "VT",
        "zip": "05452",
        "latitude": 44.492338,
        "longitude": -73.117761,
        "vtbt40": "/img/vtbt40/blackflannel.png",
        "vtbt100": "/img/vtbt100/blackflannel.png",
        "vtbt200": "/img/vtbt200/blackflannel.png",
        "selector": "blackflannel",
        "url":"https://www.blackflannel.com/",
        "phone":"802.857.5629",
        "facebook":"https://www.facebook.com/BlackFlannelBrewing/",
        "twitter":"https://twitter.com/blackflannelvt",
        "googleplus":"",
        "instagram":"https://www.instagram.com/blackflannelbrewing/",
        "advocate": "",
        "region": "north-central"
    },
    {
        "name": "Vermont Beer Makers",
        "address": "100 River Road",
        "city": "Springfield",
        "state": "VT",
        "zip": "05156",
        "latitude": 43.303947,
        "longitude":  -72.49079,
        "vtbt40": "/img/vtbt40/vermontbeermakers.png",
        "vtbt100": "/img/vtbt100/vermontbeermakers.png",
        "vtbt200": "/img/vtbt200/vermontbeermakers.png",
        "selector": "vermontbeermakers",
        "url":"http://www.troutriverbrewing.com/",
        "phone":"802.885.6613",
        "facebook":"https://www.facebook.com/troutriverbrewery",
        "twitter":"",
        "googleplus":"",
        "instagram":"https://www.instagram.com/troutriverbrewery/",
        "advocate": "https://www.beeradvocate.com/beer/profile/45019/",
        "region": "south-central"
    },
    {
        "name": "Full Barrel Cooperative Brewery",
        "address": "P.O. Box 3358",
        "city": "Burlington",
        "state": "VT",
        "zip": "05408",
        "latitude": 44.476360,
        "longitude":  -73.212810,
        "vtbt40": "/img/vtbt40/fullbarrel.png",
        "vtbt100": "/img/vtbt100/fullbarrel.png",
        "vtbt200": "/img/vtbt200/fullbarrel.png",
        "selector": "fullbarrel",
        "url":"http://www.fullbarrel.coop/home",
        "phone":"",
        "facebook":"https://www.facebook.com/fullbarrelcoop/",
        "twitter":"https://twitter.com/FullBarrelCoop",
        "googleplus":"",
        "instagram":"http://instagram.com/fullbarrelcoop",
        "advocate": "https://www.beeradvocate.com/beer/profile/45019/",
        "region":"north-central"
    },
    {
        "name": "Whirligig Brewing",
        "address": "379 Railroad Street, #2",
        "city": "St. Johnsbury",
        "state": "VT",
        "zip": "05819",
        "latitude": 44.418030,
        "longitude":  -72.015880,
        "vtbt40": "/img/vtbt40/whirligig.png",
        "vtbt100": "/img/vtbt100/whirligig.png",
        "vtbt200": "/img/vtbt200/whirligig.png",
        "selector": "whirligig",
        "url":"https://whirligigbrewing.square.site/",
        "phone":"802.417.2468",
        "facebook":"https://www.facebook.com/whirligigbrewing/",
        "twitter":"",
        "googleplus":"",
        "instagram":"https://www.instagram.com/whirligigbrewing",
        "advocate": "https://www.beeradvocate.com/beer/profile/59352/",
        "region": "north"
    },
    {
        "name": "Killington Beer Company",
        "address": "53 Village Circle Road",
        "city": "Killington",
        "state": "VT",
        "zip": "05751",
        "latitude": 43.657980,
        "longitude":  -72.799360,
        "vtbt40": "/img/vtbt40/killington.png",
        "vtbt100": "/img/vtbt100/killington.png",
        "vtbt200": "/img/vtbt200/killington.png",
        "selector": "killington",
        "url":"https://killingtonbeercompany.com",
        "phone":"833.522.2337",
        "facebook":"https://www.facebook.com/killingtonbeer/",
        "twitter":"",
        "googleplus":"",
        "instagram":"",
        "advocate": "https://www.beeradvocate.com/beer/profile/51672/",
        "region": "south-central"
    },
    {
        "name": "Two Heros Brewing",
        "address": "1 Ferry Road",
        "city": "South Hero",
        "state": "VT",
        "zip": "05486",
        "latitude": 44.664250,
        "longitude":  -73.322980,
        "vtbt40": "/img/vtbt40/twoheros.png",
        "vtbt100": "/img/vtbt100/twoheros.png",
        "vtbt200": "/img/vtbt200/twoheros.png",
        "selector": "twoheros",
        "url":"https://www.twoheroesbrewery.com/",
        "phone":"833.378.5187",
        "facebook":"https://www.facebook.com/twoheroesbrewery/",
        "twitter":"",
        "googleplus":"",
        "instagram":"https://www.instagram.com/twoheroesbrewery/",
        "advocate": "",
        "region": "north-central"
    },
    {
        "name": "Farm Road Brewing",
        "address": "400 Main Street",
        "city": "Bennington",
        "state": "VT",
        "zip": "05201",
        "latitude": 42.878440,
        "longitude":  -73.196810,
        "vtbt40": "/img/vtbt40/farmroad.png",
        "vtbt100": "/img/vtbt100/farmroad.png",
        "vtbt200": "/img/vtbt200/farmroad.png",
        "selector": "farmroad",
        "url":"https://www.farmroadbrewing.com/",
        "phone":"802.440.5121",
        "facebook":"https://www.facebook.com/pages/category/Brewery/Farm-Road-Brewing-106608951108987/",
        "twitter":"",
        "googleplus":"",
        "instagram":"https://www.instagram.com/frbbennington",
        "advocate": "",
        "region": "south"
    },
    {
        "name": "Kraemer and Kin",
        "address": "3275 US Route 2",
        "city": "North Hero",
        "state": "VT",
        "zip": "05474",
        "latitude": 44.812830,
        "longitude":  -73.292190,
        "vtbt40": "/img/vtbt40/kraemerkin.png",
        "vtbt100": "/img/vtbt100/kraemerkin.png",
        "vtbt200": "/img/vtbt200/kraemerkin.png",
        "selector": "kraemerkin",
        "url":"https://www.kraemerandkin.com/",
        "phone":"",
        "facebook":"https://www.facebook.com/kraemerandkin",
        "twitter":"",
        "googleplus":"",
        "instagram":"https://www.instagram.com/kraemerandkin/",
        "advocate": "https://www.beeradvocate.com/beer/profile/58845/",
        "region": "north-central"
    },
    {
        "name": "Mount Holly Brewing Co",
        "address": "North Bowlsville Road",
        "city": "Mount Holly",
        "state": "VT",
        "zip": "05730",
        "latitude": 43.443790,
        "longitude":  -72.852680,
        "vtbt40": "/img/vtbt40/mountholly.png",
        "vtbt100": "/img/vtbt100/mountholly.png",
        "vtbt200": "/img/vtbt200/mountholly.png",
        "selector": "mountholly",
        "url":"https://mounthollybeer.com/",
        "phone":"",
        "facebook":"https://www.facebook.com/MOUNTHOLLYBEER/",
        "twitter":"",
        "googleplus":"",
        "instagram":"https://www.instagram.com/mounthollybeer/",
        "advocate": "https://www.beeradvocate.com/beer/profile/60182/",
        "region": "south-central"
    },
    {
        "name": "Scotch Hill Brewing Co.",
        "address": "71 Main Street",
        "city": "Fair Haven",
        "state": "VT",
        "zip": "05743",
        "latitude": 43.593170,
        "longitude":  -73.265090,
        "vtbt40": "/img/vtbt40/scotch.png",
        "vtbt100": "/img/vtbt100/scotch.png",
        "vtbt200": "/img/vtbt200/scotch.png",
        "selector": "scotch",
        "url":"",
        "phone":"802.278.8078",
        "facebook":"https://www.facebook.com/scotchhillbrewing/",
        "twitter":"",
        "googleplus":"",
        "instagram":"https://www.instagram.com/scotchhillbrewingco/",
        "advocate": "https://www.beeradvocate.com/beer/profile/55188/",
        "region": "south-central"
    },
    {
        "name": "Wunderkammer Bier",
        "address": "South Albany Road",
        "city": "Albany",
        "state": "VT",
        "zip": "05820",
        "latitude": 44.666998,
        "longitude":  -72.317721,
        "vtbt40": "/img/vtbt40/wunder.png",
        "vtbt100": "/img/vtbt100/wunder.png",
        "vtbt200": "/img/vtbt200/wunder.png",
        "selector": "wunder",
        "url":"https://www.wunderkammerbier.com/",
        "phone":"",
        "facebook":"https://www.facebook.com/wunderkammerbier/",
        "twitter":"",
        "googleplus":"",
        "instagram":"https://www.instagram.com/wunderkammerbier/",
        "advocate": "https://www.beeradvocate.com/beer/profile/47666/",
        "region": "north"
    },
    {
        "name": "Dirt Church Brewing Company",
        "address": "1771 VT Rt 114",
        "city": "East Haven",
        "state": "VT",
        "zip": "05837",
        "latitude": 44.797370,
        "longitude":  -71.911600,
        "vtbt40": "/img/vtbt40/dirt.png",
        "vtbt100": "/img/vtbt100/dirt.png",
        "vtbt200": "/img/vtbt200/dirt.png",
        "selector": "dirt",
        "url":"https://dirtchurchvt.wordpress.com/",
        "phone":"802.745.9252",
        "facebook":"https://facebook.com/dirtchurchvt",
        "twitter":"",
        "googleplus":"",
        "instagram":"https://instagram.com/dirtchurchvt",
        "advocate": "https://www.beeradvocate.com/beer/profile/61360/",
        "region": "north"
    },
    {
        "name": "Soulmate Brewing Company",
        "address": "74 Portland Street",
        "city": "Morrisvile",
        "state": "VT",
        "zip": "05661",
        "latitude": 44.56288513239861,
        "longitude":  -72.59816137445401,
        "vtbt40": "/img/vtbt40/soulmate.png",
        "vtbt100": "/img/vtbt100/soulmate.png",
        "vtbt200": "/img/vtbt200/soulmate.png",
        "selector": "soulmate",
        "url":"https://www.soulmatebrewing.com/",
        "phone":"802.851.8569",
        "facebook":"https://www.facebook.com/soulmatebrewing/",
        "twitter":"https://twitter.com/soulmatebrewing",
        "googleplus":"",
        "instagram":"https://www.instagram.com/soulmatebrewing/",
        "advocate": "",
        "region": "north-central"
    },
    {
        "name": "Lost Nation Brewing",
        "address": "254 Wilkins Street",
        "city": "Morrisville",
        "state": "VT",
        "zip": "05661",
        "latitude": 44.569263,
        "longitude":  -72.603439,
        "vtbt40": "/img/vtbt40/lostnationbrewing.png",
        "vtbt100": "/img/vtbt100/lostnationbrewing.png",
        "vtbt200": "/img/vtbt200/lostnationbrewing.png",
        "selector": "lostnationbrewing",
        "url":"http://lostnationbrewing.com/",
        "phone":"802.851.8041",
        "facebook":"http://www.facebook.com/pages/Lost-Nation-Brewing/168436043305981",
        "twitter":"https://twitter.com/LostNationBrew",
        "googleplus":"",
        "instagram":"",
        "advocate": "https://www.beeradvocate.com/beer/profile/31645/",
        "region": "north-central"
    },
    {
        "name": "Red Leaf Gluten Free Brewing",
        "address": "208 Main Street",
        "city": "Jeffersonville",
        "state": "VT",
        "zip": "05464",
        "latitude": 44.646592826168316,
        "longitude":  -72.8278103198918,
        "vtbt40": "/img/vtbt40/redleaf.png",
        "vtbt100": "/img/vtbt100/redleaf.png",
        "vtbt200": "/img/vtbt200/redleaf.png",
        "selector": "redleaf",
        "url":"https://www.redleafgfbrewing.com",
        "phone":"802.585.1113",
        "facebook":"https://www.facebook.com/redleafgfbrewing",
        "twitter":"",
        "googleplus":"",
        "instagram":"http://instagram.com/redleafgfbrewing",
        "advocate": ""
    },
    {
        "name": "The Tropic Brewing",
        "address": "40 Foundry Street",
        "city": "Waterbury",
        "state": "VT",
        "zip": "05676",
        "latitude": 44.33763042586468,
        "longitude":  -72.75450754070128,
        "vtbt40": "/img/vtbt40/tropic.png",
        "vtbt100": "/img/vtbt100/tropic.png",
        "vtbt200": "/img/vtbt200/tropic.png",
        "selector": "tropic",
        "url":"",
        "phone":"802.498.7767",
        "facebook":"https://www.facebook.com/people/The-Tropic/61557806818481/",
        "twitter":"",
        "googleplus":"",
        "instagram":"https://www.instagram.com/thetropicbrewing/",
        "advocate": "https://www.beeradvocate.com/beer/profile/68080/"
    },
    {
        "name": "Twisted Horn Brewery",
        "address": "3714 VT Route 11",
        "city": "Londonderry",
        "state": "VT",
        "zip": "05148",
        "latitude": 43.214871610069196,
        "longitude":  -72.78964274512298,
        "vtbt40": "/img/vtbt40/twistedhorn.png",
        "vtbt100": "/img/vtbt100/twistedhorn.png",
        "vtbt200": "/img/vtbt200/twistedhorn.png",
        "selector": "twistedhorn",
        "url":"",
        "phone":"",
        "facebook":"https://www.facebook.com/p/Twisted-Horn-Brewery-61569474572603/",
        "twitter":"",
        "googleplus":"",
        "instagram":"https://www.instagram.com/p/DPjrpqfEUyK/",
        "advocate": ""
    },
    {
        "name": "Mothership Brewery",
        "address": "115 St. Paul Street",
        "city": "Burlington",
        "state": "VT",
        "zip": "05401",
        "latitude": 44.47678428985152,
        "longitude":  -73.21427786071456,
        "vtbt40": "/img/vtbt40/mothership.png",
        "vtbt100": "/img/vtbt100/mothership.png",
        "vtbt200": "/img/vtbt200/mothership.png",
        "selector": "mothership",
        "url":"https://www.mothershipbrewery.com/",
        "phone":"802.861.2999",
        "facebook":"",
        "twitter":"",
        "googleplus":"",
        "instagram":"https://www.instagram.com/mothership_flatbreadbtv/",
        "advocate": "https://www.beeradvocate.com/beer/profile/71632/"
    },
    {
        "name": "Lost Marble Brewing Company",
        "address": "4529 Main Street",
        "city": "Manchester Center",
        "state": "VT",
        "zip": "05255",
        "latitude": 43.17355580747103,
        "longitude":  -73.06179843194543,
        "vtbt40": "/img/vtbt40/lostmarble.png",
        "vtbt100": "/img/vtbt100/lostmarble.png",
        "vtbt200": "/img/vtbt200/lostmarble.png",
        "selector": "lostmarble",
        "url":"https://lostmarblevt.com/",
        "phone":"802.362.5678",
        "facebook":"https://www.facebook.com/profile.php?id=61573137091178",
        "twitter":"",
        "googleplus":"",
        "instagram":"https://www.instagram.com/lostmarblebrewing/",
        "advocate": ""
    },
    {
        "name": "7 Balls Brewing",
        "address": "94 Rockingham Street",
        "city": "Bellows Falls",
        "state": "VT",
        "zip": "05101",
        "latitude": 43.13563898505895,
        "longitude":  -72.44683653009545,
        "vtbt40": "/img/vtbt40/sevenballs.png",
        "vtbt100": "/img/vtbt100/sevenballs.png",
        "vtbt200": "/img/vtbt200/sevenballs.png",
        "selector": "sevenballs",
        "url":"https://www.7ballsbrewing.com/",
        "phone":"802.376.5515",
        "facebook":"https://www.facebook.com/p/7-BALLS-Brewing-100082833627636/",
        "twitter":"",
        "googleplus":"",
        "instagram":"https://www.instagram.com/7ballsbrewing/?hl=en",
        "advocate": ""
    },
    {
        "name": "Lot Six Brewing Co",
        "address": "4087 VT Route 108",
        "city": "Jeffersonville",
        "state": "VT",
        "zip": "05464",
        "latitude": 44.591250025282235,
        "longitude":  -72.79335559330676,
        "vtbt40": "/img/vtbt40/lotsix.png",
        "vtbt100": "/img/vtbt100/lotsix.png",
        "vtbt200": "/img/vtbt200/lotsix.png",
        "selector": "lotsix",
        "url":"https://www.lotsixbrewing.com/",
        "phone":"802.575.8843",
        "facebook":"https://www.facebook.com/p/Lot-6-Brewing-Company-61561081107267/",
        "twitter":"",
        "googleplus":"",
        "instagram":"https://www.instagram.com/lot6brewing/?hl=en",
        "advocate": ""
    }
  ]

