[
  {
    "name": "Barn First Creamery",
    "address": "1248 North Hill Road",
    "city": "Westfield",
    "state": "VT",
    "zip": "05874",
    "latitude": 44.905670,
    "longitude": -72.427620,
    "logo100": "/img/artisans-logos/cheeses/logo100/barnfirst.png",
    "logo200": "/img/artisans-logos/cheeses/logo200/barnfirst.png",
    "selector": "barnfirst",
    "url":"",
    "phone":"802.744.6852",
    "facebook":"https://www.facebook.com/barnfirst/",
    "twitter":"",
    "googleplus":"",
    "instagram":"",
    "council": "https://vtcheese.com/members/barn-first-creamery/"
  },
  {
    "name": "Big Picture Farm",
    "address": "1600 Peaked Mountain Road",
    "city": "Townshend",
    "state": "VT",
    "zip": "05353",
    "latitude": 43.055080,
    "longitude": -72.643400,
    "logo100": "/img/artisans-logos/cheeses/logo100/bigpicture.png",
    "logo200": "/img/artisans-logos/cheeses/logo200/bigpicture.png",
    "selector": "bigpicture",
    "url":"https://bigpicturefarm.com/",
    "phone":"802.221.0547",
    "facebook":"https://facebook.com/bigpicturefarm",
    "twitter":"https://twitter.com/bigpicturefarm",
    "googleplus":"",
    "instagram":"https://instagram.com/bigpicturefarm",
    "council": "https://vtcheese.com/members/big-picture-farm/"
  },
  {
    "name": "Billings Farm and Museum",
    "address": "69 Old River Road",
    "city": "Woodstock",
    "state": "VT",
    "zip": "05091",
    "latitude": 43.6313997,
    "longitude": -72.5158276,
    "logo100": "/img/artisans-logos/cheeses/logo100/billings.png",
    "logo200": "/img/artisans-logos/cheeses/logo200/billings.png",
    "selector": "billings",
    "url":"https://billingsfarm.org/index.html",
    "phone":"802.457.2355",
    "facebook":"https://www.facebook.com/BillingsFarmMuseum",
    "twitter":"",
    "googleplus":"",
    "instagram":"https://www.instagram.com/billingsfarm/",
    "council": "https://vtcheese.com/members/billings-farm-museum/"
  },
  {
    "name": "Black Rose Creamery",
    "address": "195 Route 315",
    "city": "Rupert",
    "state": "VT",
    "zip": "05768",
    "latitude": 43.262570,
    "longitude": -73.220030,
    "logo100": "/img/artisans-logos/cheeses/logo100/blackrose.png",
    "logo200": "/img/artisans-logos/cheeses/logo200/blackrose.png",
    "selector": "blackrose",
    "url":"https://blackrosecheeses.com/",
    "phone":"802.379.0767",
    "facebook":"https://www.facebook.com/pages/category/Farm/Black-Rose-Creamery-192868910788947/",
    "twitter":"",
    "googleplus":"",
    "instagram":"https://www.instagram.com/explore/locations/1016762542/black-rose-creamery?hl=en",
    "council": "https://vtcheese.com/members/black-rose-creamery/"
  },
  {
    "name": "Blue Ledge Farm",
    "address": "2001 Old Jerusalem Road",
    "city": "Salisbury",
    "state": "VT",
    "zip": "05769",
    "latitude": 43.876690,
    "longitude": -73.154270,
    "logo100": "/img/artisans-logos/cheeses/logo100/blueledge.png",
    "logo200": "/img/artisans-logos/cheeses/logo200/blueledge.png",
    "selector": "blueledge",
    "url":"https://blueledgefarm.com/",
    "phone":"802.247.0095",
    "facebook":"https://www.facebook.com/blueledgefarm/",
    "twitter":"",
    "googleplus":"",
    "instagram":"https://www.instagram.com/blueledgefarm/",
    "council": "https://vtcheese.com/members/blue-ledge-farm/"
  },
  {
    "name": "Blythedale Farm",
    "address": "1471 Cookeville Road",
    "city": "Corinth",
    "state": "VT",
    "zip": "05039",
    "latitude": 44.023380,
    "longitude": -72.291910,
    "logo100": "/img/artisans-logos/cheeses/logo100/blythedale.png",
    "logo200": "/img/artisans-logos/cheeses/logo200/blythedale.png",
    "selector": "blythedale",
    "url":"http://www.blythedalecheese.com/",
    "phone":"802.439.6575",
    "facebook":"https://www.facebook.com/Blythedale-Farm-1696919763884782/",
    "twitter":"",
    "googleplus":"",
    "instagram":"",
    "council": "https://vtcheese.com/members/blythedale-farm-2/"
  },
  {
    "name": "Boston Post Dairy",
    "address": "2061 Sampsonville Road",
    "city": "Enosburg Falls",
    "state": "VT",
    "zip": "05450",
    "latitude": 44.921010,
    "longitude": -72.757900,
    "logo100": "/img/artisans-logos/cheeses/logo100/bostonpost.png",
    "logo200": "/img/artisans-logos/cheeses/logo200/bostonpost.png",
    "selector": "bostonpost",
    "url":"https://bostonpostdairy.com/",
    "phone":"802.933.2749",
    "facebook":"https://www.facebook.com/bpdlawyersgoats/",
    "twitter":"https://mobile.twitter.com/bostonpostdairy",
    "googleplus":"",
    "instagram":"https://www.instagram.com/bostonpostdairy/?hl=en",
    "council": "https://vtcheese.com/members/boston-post-dairy/"
  },
  {
    "name": "Woodcock Farm",
    "address": "Woodcock Lane",
    "city": "Weston",
    "state": "VT",
    "zip": "05161",
    "latitude": 43.251450,
    "longitude": -72.794020,
    "logo100": "/img/artisans-logos/cheeses/logo100/woodcock.png",
    "logo200": "/img/artisans-logos/cheeses/logo200/woodcock.png",
    "selector": "woodcock",
    "url":"http://www.woodcockfarm.com/",
    "phone":"802.824.6135",
    "facebook":"",
    "twitter":"",
    "googleplus":"",
    "instagram":"",
    "council": "https://vtcheese.com/members/woodcock-farm/"
  },
  {
    "name": "Boucher Family Farm",
    "address": "2183 Gore Road",
    "city": "Highgate Center",
    "state": "VT",
    "zip": "05459",
    "latitude": 44.964950,
    "longitude": -73.019690,
    "logo100": "/img/artisans-logos/cheeses/logo100/boucherfamily.png",
    "logo200": "/img/artisans-logos/cheeses/logo200/boucherfamily.png",
    "selector": "boucherfamily",
    "url":"http://boucherfamilyfarm.blogspot.com/",
    "phone":"802.868.4193",
    "facebook":"",
    "twitter":"https://mobile.twitter.com/boucherfarm",
    "googleplus":"",
    "instagram":"https://www.instagram.com/Dawn05459",
    "council": "https://vtcheese.com/members/boucher-family-farm/"
  },
  {
    "name": "West River Creamery",
    "address": "1061 Middletown Road",
    "city": "Londonderry",
    "state": "VT",
    "zip": "05148",
    "latitude": 43.207830,
    "longitude": -72.813700,
    "logo100": "/img/artisans-logos/cheeses/logo100/westriver.png",
    "logo200": "/img/artisans-logos/cheeses/logo200/westriver.png",
    "selector": "westriver",
    "url":"http://www.westrivercreamery.com/",
    "phone":"802.824.6900",
    "facebook":"https://www.facebook.com/people/West-River-Creamery/100028139667292/",
    "twitter":"",
    "googleplus":"",
    "instagram":"",
    "council": "https://vtcheese.com/members/west-river-creamery/"
  },
  {
    "name": "Bridport Creamery",
    "address": "3284 Lake Street",
    "city": "Bridport",
    "state": "VT",
    "zip": "05734",
    "latitude": 43.966590,
    "longitude": -73.399130,
    "logo100": "/img/artisans-logos/cheeses/logo100/bridport.png",
    "logo200": "/img/artisans-logos/cheeses/logo200/bridport.png",
    "selector": "bridport",
    "url":"https://bridportcreamery.com/",
    "phone":"802.758.6800",
    "facebook":"http://facebook.com/bridportcreamery",
    "twitter":"",
    "googleplus":"",
    "instagram":"",
    "council": "https://vtcheese.com/members/bridport-creamery/"
  },
  {
    "name": "Cabot Creamery",
    "address": "2878 Main Street",
    "city": "Cabot",
    "state": "VT",
    "zip": "05647",
    "latitude": 44.400310,
    "longitude": -72.314500,
    "logo100": "/img/artisans-logos/cheeses/logo100/cabot.png",
    "logo200": "/img/artisans-logos/cheeses/logo200/cabot.png",
    "selector": "cabot",
    "url":"https://cabotcreamery.com/",
    "phone":"802.837.4261",
    "facebook":"https://www.facebook.com/cabotcreamery/",
    "twitter":"",
    "googleplus":"",
    "instagram":"https://www.instagram.com/cabotcheese/?hl=en",
    "council": "https://vtcheese.com/members/cabot-creamery-cooperative/"
  },
  {
    "name": "Cate Hill Orchard",
    "address": "697 Shadow Lake Road",
    "city": "Greensboro",
    "state": "VT",
    "zip": "05827",
    "latitude": 44.639570,
    "longitude": -72.318350,
    "logo100": "/img/artisans-logos/cheeses/logo100/catehill.png",
    "logo200": "/img/artisans-logos/cheeses/logo200/catehill.png",
    "selector": "catehill",
    "url":"https://catehillorchard.com/",
    "phone":"802.586.2059",
    "facebook":"",
    "twitter":"",
    "googleplus":"",
    "instagram":"https://www.instagram.com/catehillorchard/?hl=en",
    "council": "https://vtcheese.com/members/cate-hill-orchard/"
  },
  {
    "name": "Champlain Valley Creamery",
    "address": "88 Mainelli Road",
    "city": "Middlebury",
    "state": "VT",
    "zip": "05753",
    "latitude": 44.035330,
    "longitude": -73.169930,
    "logo100": "/img/artisans-logos/cheeses/logo100/champlainvalley.png",
    "logo200": "/img/artisans-logos/cheeses/logo200/champlainvalley.png",
    "selector": "champlainvalley",
    "url":"https://cvcream.com/",
    "phone":"802.898.7361",
    "facebook":"https://www.facebook.com/ChamplainValleyCreamery/",
    "twitter":"",
    "googleplus":"",
    "instagram":"",
    "council": "https://vtcheese.com/members/champlain-valley-creamery/"
  },
  {
    "name": "Cobb Hill Cheese",
    "address": "5 Linden Road",
    "city": "Hartland",
    "state": "VT",
    "zip": "05048",
    "latitude": 43.548280,
    "longitude": -72.424600,
    "logo100": "/img/artisans-logos/cheeses/logo100/cobbhill.png",
    "logo200": "/img/artisans-logos/cheeses/logo200/cobbhill.png",
    "selector": "cobbhill",
    "url":"http://cobbhillcheese.com/",
    "phone":"802.436.4360",
    "facebook":"https://www.facebook.com/Cobb-Hill-Cheese-634392579960316/",
    "twitter":"",
    "googleplus":"",
    "instagram":"",
    "council": "https://vtcheese.com/members/cobb-hill-cheese/"
  },
  {
    "name": "Consider Bardwell Farm",
    "address": "1333 VT-153",
    "city": "West Pawlet",
    "state": "VT",
    "zip": "05775",
    "latitude": 43.333110,
    "longitude": -73.243910,
    "logo100": "/img/artisans-logos/cheeses/logo100/consider.png",
    "logo200": "/img/artisans-logos/cheeses/logo200/consider.png",
    "selector": "consider",
    "url":"https://www.considerbardwellfarm.com/",
    "phone":"802.645.9928",
    "facebook":"https://www.facebook.com/consider.farm/",
    "twitter":"",
    "googleplus":"",
    "instagram":"https://www.instagram.com/considerbardwellfarm/?hl=en",
    "council": "https://vtcheese.com/category/member-products/consider-bardwell-farm/"
  },
  {
    "name": "Crooked Mile Cheese",
    "address": "4962 Old County Road",
    "city": "Waterford",
    "state": "VT",
    "zip": "05819",
    "latitude": 44.348330,
    "longitude": -71.870830,
    "logo100": "/img/artisans-logos/cheeses/logo100/crookedmile.png",
    "logo200": "/img/artisans-logos/cheeses/logo200/crookedmile.png",
    "selector": "crookedmile",
    "url":"https://www.crookedmilecheese.com/",
    "phone":"802.274.4105",
    "facebook":"https://www.facebook.com/crookedmilecheese/",
    "twitter":"",
    "googleplus":"",
    "instagram":"https://www.instagram.com/crookedmilecheese/?hl=en",
    "council": "https://vtcheese.com/members/crooked-mile-cheese/"
  },
  {
    "name": "Crowley Cheese",
    "address": "14 Crowley Lane",
    "city": "Mt. Holly",
    "state": "VT",
    "zip": "05758",
    "latitude": 43.424200,
    "longitude": -72.786640,
    "logo100": "/img/artisans-logos/cheeses/logo100/crowley.png",
    "logo200": "/img/artisans-logos/cheeses/logo200/crowley.png",
    "selector": "crowley",
    "url":"https://www.crowleycheese.com/",
    "phone":"802.259.2340",
    "facebook":"https://www.facebook.com/CrowleyCheeseVT/",
    "twitter":"",
    "googleplus":"",
    "instagram":"https://www.instagram.com/crowleycheese/?hl=en",
    "council": "https://vtcheese.com/members/crowley-cheese/"
  },
  {
    "name": "Fairy Tale Farm",
    "address": "1183 VT Route 125",
    "city": "Bridport",
    "state": "VT",
    "zip": "05734",
    "latitude": 43.989060,
    "longitude": -73.278500,
    "logo100": "/img/artisans-logos/cheeses/logo100/fairytale.png",
    "logo200": "/img/artisans-logos/cheeses/logo200/fairytale.png",
    "selector": "fairytale",
    "url":"https://www.fairytalefarm.net/",
    "phone":"802.265.5646",
    "facebook":"https://www.facebook.com/fairytalefarmcheese/",
    "twitter":"",
    "googleplus":"",
    "instagram":"https://instagram.com/fairytalefarmcheeses",
    "council": "https://vtcheese.com/members/fairy-tale-farm/"
  },
  {
    "name": "Franklin Foods",
    "address": "68 East Street",
    "city": "Enosberg Falls",
    "state": "VT",
    "zip": "05450",
    "latitude": 44.909870,
    "longitude": -72.798300,
    "logo100": "/img/artisans-logos/cheeses/logo100/franklin.png",
    "logo200": "/img/artisans-logos/cheeses/logo200/franklin.png",
    "selector": "franklin",
    "url":"https://www.franklinfoods.com/",
    "phone":"802.933.4338",
    "facebook":"",
    "twitter":"",
    "googleplus":"",
    "instagram":"",
    "council": "https://vtcheese.com/members/franklin-foods/"
  },
  {
    "name": "Grafton Village Cheese",
    "address": "56 Townshend Road",
    "city": "Grafton",
    "state": "VT",
    "zip": "05146",
    "latitude": 43.17186,
    "longitude": -72.60921,
    "logo100": "/img/artisans-logos/cheeses/logo100/grafton.png",
    "logo200": "/img/artisans-logos/cheeses/logo200/grafton.png",
    "selector": "grafton",
    "url":"https://www.graftonvillagecheese.com/",
    "phone":"802.246.1000",
    "facebook":"https://www.facebook.com/GraftonVillageCheese/",
    "twitter":"https://twitter.com/graftoncheese",
    "googleplus":"",
    "instagram":"https://www.instagram.com/graftoncheese/",
    "council": "https://vtcheese.com/members/grafton-village-cheese/"
  },
  {
    "name": "Hildene Farm",
    "address": "1005 Hildene Road",
    "city": "Manchester",
    "state": "VT",
    "zip": "05254",
    "latitude": 43.14144,
    "longitude": -73.08152,
    "logo100": "/img/artisans-logos/cheeses/logo100/hildene.png",
    "logo200": "/img/artisans-logos/cheeses/logo200/hildene.png",
    "selector": "hildene",
    "url":"https://hildene.org/visiting/estate/hildene_farm",
    "phone":"802.362.1788",
    "facebook":"http://www.facebook.com/pages/Manchester-VT/Hildene-The-Lincoln-Family-Home/193532381410?ref=mf",
    "twitter":"https://twitter.com/hildene",
    "googleplus":"",
    "instagram":"https://www.instagram.com/hildenethelincolnfamilyhome/",
    "council": "https://vtcheese.com/members/hildene-goat-dairy/"
  },
  {
    "name": "Ice House Farm",
    "address": "421 Hathaway Road",
    "city": "Goshen",
    "state": "VT",
    "zip": "05733",
    "latitude": 43.14144,
    "longitude": -73.08152,
    "logo100": "/img/artisans-logos/cheeses/logo100/icehouse.png",
    "logo200": "/img/artisans-logos/cheeses/logo200/icehouse.png",
    "selector": "icehouse",
    "url":"https://icehousefarmvt.com/",
    "phone":"802.247.1443",
    "facebook":"",
    "twitter":"",
    "googleplus":"",
    "instagram":"https://www.instagram.com/icehousefarm",
    "council": "https://vtcheese.com/members/ice-house-farm/"
  },
  {
    "name": "Jasper Hill Farm",
    "address": "844 Garvin Hill Road",
    "city": "Greensboro",
    "state": "VT",
    "zip": "05842",
    "latitude": 44.587316,
    "longitude": -72.271286,
    "logo100": "/img/artisans-logos/cheeses/logo100/jasperhill.png",
    "logo200": "/img/artisans-logos/cheeses/logo200/jasperhill.png",
    "selector": "jasperhill",
    "url":"https://www.jasperhillfarm.com/",
    "phone":"802.533.2566",
    "facebook":"http://www.facebook.com/jasperhillfarm",
    "twitter":"",
    "googleplus":"",
    "instagram":"https://www.instagram.com/jasperhillfarm/",
    "council": "https://vtcheese.com/members/jasper-hill-farm/"
  },
  {
    "name": "Karim Farm & Creamery",
    "address": "442 Chamberlin Road",
    "city": "Ryegate",
    "state": "VT",
    "zip": "05042",
    "phone":"802.476.5189",
    "latitude": 44.23392,
    "longitude": -72.06446,
    "selector": "karimfarm",
    "logo100": "/img/artisans-logos/cheeses/logo100/karimfarm.png",
    "logo200": "/img/artisans-logos/cheeses/logo200/karimfarm.png",
    "url":"https://www.karimfarm.com/",
    "facebook":"https://m.facebook.com/Karim-Farm-Creamery-291345887701128/",
    "twitter":"",
    "googleplus":"",
    "instagram":"https://www.instagram.com/karimfarmvt/?hl=en",
    "council": "https://vtcheese.com/members/jasper-hill-farm/"
  },
  {
    "name": "Kimball Brook Farm",
    "address": "2263 Greenbush Road",
    "city": "Ferrisburgh",
    "state": "VT",
    "zip": "05473",
    "phone":"802.482.6455",
    "latitude": 44.25709,
    "longitude": -73.24818,
    "selector": "kimballbrook",
    "logo100": "/img/artisans-logos/cheeses/logo100/kimballbrook.png",
    "logo200": "/img/artisans-logos/cheeses/logo200/kimballbrook.png",
    "url":"https://kimballbrookfarm.com/",
    "facebook":"https://www.facebook.com/KimballBrookFarmVT/?ref=page_internal",
    "twitter":"",
    "googleplus":"",
    "instagram":"https://www.instagram.com/kimballbrookfarm/",
    "council": "https://vtcheese.com/members/kimball-brook-farm/"
  },
  {
    "name": "Lazy Lady Farm",
    "address": "973 Snyderbrook Road",
    "city": "Westfield",
    "state": "VT",
    "zip": "05874",
    "phone":"802.595.4473",
    "latitude": 44.851520,
    "longitude": -72.451180,
    "selector": "lazylady",
    "logo100": "/img/artisans-logos/cheeses/logo100/lazylady.png",
    "logo200": "/img/artisans-logos/cheeses/logo200/lazylady.png",
    "url":"https://www.lazyladyfarm.com/",
    "facebook":"",
    "twitter":"",
    "googleplus":"",
    "instagram":"",
    "council": "https://vtcheese.com/members/lazy-lady-farm/"
  },
  {
    "name": "Maplebrook Farm",
    "address": "441 Water Street",
    "city": "North Bennington",
    "state": "VT",
    "zip": "05257",
    "phone":"802.440.9950",
    "latitude": 42.922910,
    "longitude": -73.246100,
    "selector": "maplebrook",
    "logo100": "/img/artisans-logos/cheeses/logo100/maplebrook.png",
    "logo200": "/img/artisans-logos/cheeses/logo200/maplebrook.png",
    "url":"https://maplebrookvt.com/",
    "facebook":"https://www.facebook.com/maplebrookcheese/",
    "twitter":"",
    "googleplus":"",
    "instagram":"https://www.instagram.com/maplebrookfarm/",
    "council": "https://vtcheese.com/members/maplebrook-farm/"
  },
  {
    "name": "Midnight Goat Farm",
    "address": "9613 Main Road",
    "city": "Huntington",
    "state": "VT",
    "zip": "05462",
    "phone":"802.882.1952",
    "latitude": 44.232700,
    "longitude": -72.964030,
    "selector": "midnight",
    "logo100": "/img/artisans-logos/cheeses/logo100/midnight.png",
    "logo200": "/img/artisans-logos/cheeses/logo200/midnight.png",
    "url":"https://www.midnightgoatfarm.com/index.html",
    "facebook":"https://www.facebook.com/MidnightGoatFarm",
    "twitter":"",
    "googleplus":"",
    "instagram":"",
    "council": "https://vtcheese.com/members/midnight-goat-farm-2/"
  },
  {
    "name": "Mt Mansfield Creamery",
    "address": "120 Pleasant Street",
    "city": "Morristown",
    "state": "VT",
    "zip": "05661",
    "phone":"802.888.7686",
    "latitude": 44.563630,
    "longitude": -72.596590,
    "selector": "mtmansfield",
    "logo100": "/img/artisans-logos/cheeses/logo100/mtmansfield.png",
    "logo200": "/img/artisans-logos/cheeses/logo200/mtmansfield.png",
    "url":"https://www.mtmansfieldcreamery.com/",
    "facebook":"https://www.facebook.com/mtmansfieldcreamery/",
    "twitter":"",
    "googleplus":"",
    "instagram":"",
    "council": "https://vtcheese.com/members/mt-mansfield-creamery/"
  },
  {
    "name": "Neighborly Farms",
    "address": "1362 Curtis Road",
    "city": "Randolph Center",
    "state": "VT",
    "zip": "05061",
    "phone":"802.728.4700",
    "latitude": 43.983090,
    "longitude": -72.592880,
    "selector": "neighborly",
    "logo100": "/img/artisans-logos/cheeses/logo100/neighborly.png",
    "logo200": "/img/artisans-logos/cheeses/logo200/neighborly.png",
    "url":"https://neighborlyfarms.com/",
    "facebook":"https://www.facebook.com/NeighborlyFarms/",
    "twitter":"",
    "googleplus":"",
    "instagram":"",
    "council": "https://vtcheese.com/members/neighborly-farms/"
  },
  {
    "name": "North Meadow Farm",
    "address": "726 North Road",
    "city": "Manchester",
    "state": "VT",
    "zip": "05255",
    "phone":"802.768.8233",
    "latitude": 43.20269,
    "longitude": -73.04513,
    "selector": "northmeadow",
    "logo100": "/img/artisans-logos/cheeses/logo100/northmeadow.png",
    "logo200": "/img/artisans-logos/cheeses/logo200/northmeadow.png",
    "url":"https://www.northmeadowfarms.com/",
    "facebook":"https://www.facebook.com/northmeadowfarmvt/",
    "twitter":"",
    "googleplus":"",
    "instagram":"https://www.instagram.com/northmeadowfarms/",
    "council": "https://vtcheese.com/members/north-meadow-farm/"
  },
  {
    "name": "Norwich Farm Creamery",
    "address": "701 Turnpike Road",
    "city": "Norwich",
    "state": "VT",
    "zip": "05055",
    "phone":"802.649.9030",
    "latitude": 43.74841,
    "longitude": -72.32702,
    "selector": "norwichfarm",
    "logo100": "/img/artisans-logos/cheeses/logo100/norwichfarm.png",
    "logo200": "/img/artisans-logos/cheeses/logo200/norwichfarm.png",
    "url":"http://www.norwichfarmcreamery.com/",
    "facebook":"https://www.facebook.com/Norwichfarmcreamery",
    "twitter":"",
    "googleplus":"",
    "instagram":"https://www.instagram.com/norwichfarmcreamery/?hl=en",
    "council": "https://vtcheese.com/members/norwich-farm-creamery/"
  },
  {
    "name": "Nothin' But Curd",
    "address": "4051 VT Route 100",
    "city": "Westfield",
    "state": "VT",
    "zip": "05874",
    "phone":"802.309.4197",
    "latitude": 44.913993828340196,
    "longitude": -72.35428565220327,
    "selector": "nothinbut",
    "logo100": "/img/artisans-logos/cheeses/logo100/nothinbut.png",
    "logo200": "/img/artisans-logos/cheeses/logo200/nothinbut.png",
    "url":"https://nothinbutcurdvt.com/",
    "facebook":"",
    "twitter":"",
    "googleplus":"",
    "instagram":"",
    "council": "https://vtcheese.com/members/nothin-but-curd/"
  },
  {
    "name": "Orb Weaver Farm",
    "address": "3406 Lime Kiln Road",
    "city": "New Haven",
    "state": "VT",
    "zip": "05472",
    "phone":"802.309.4197",
    "latitude": 44.18088464980054,
    "longitude": -73.17600837321378,
    "selector": "orbweaver",
    "logo100": "/img/artisans-logos/cheeses/logo100/orbweaver.png",
    "logo200": "/img/artisans-logos/cheeses/logo200/orbweaver.png",
    "url":"http://www.orbweaverfarm.com/",
    "facebook":"https://www.facebook.com/vermontfarmhousecheese/",
    "twitter":"",
    "googleplus":"",
    "instagram":"",
    "council": "https://vtcheese.com/members/orb-weaver-farm/"
  },
  {
    "name": "Parish Hill Creamery",
    "address": "873 Patch Road",
    "city": "Westminster",
    "state": "VT",
    "zip": "05346",
    "phone":"802.309.4197",
    "latitude": 43.06632392711175,
    "longitude": -72.51920624350521,
    "selector": "parishhill",
    "logo100": "/img/artisans-logos/cheeses/logo100/parishhill.png",
    "logo200": "/img/artisans-logos/cheeses/logo200/parishhill.png",
    "url":"https://www.parishhillcreamery.com/",
    "facebook":"https://www.facebook.com/parishhillcreamery/",
    "twitter":"",
    "googleplus":"",
    "instagram":"",
    "council": "https://vtcheese.com/members/parish-hill-creamery/"
  },
  {
    "name": "Plymouth Cheese",
    "address": "106 Messer Hill Road",
    "city": "Plymouth",
    "state": "VT",
    "zip": "05056",
    "phone":"802.672.3650",
    "latitude": 43.536409811635586,
    "longitude": -72.72359940391779,
    "selector": "plymouth",
    "logo100": "/img/artisans-logos/cheeses/logo100/plymouth.png",
    "logo200": "/img/artisans-logos/cheeses/logo200/plymouth.png",
    "url":"https://plymouthcheese.com/",
    "facebook":"https://www.facebook.com/plymouthcheese/",
    "twitter":"",
    "googleplus":"",
    "instagram":"https://www.instagram.com/plymouthcheesevt/",
    "council": "https://vtcheese.com/members/plymouth-artisan-cheese/"
  },
  {
    "name": "Rogers Farmstead",
    "address": "934 Rowell Hill Road",
    "city": "Berlin",
    "state": "VT",
    "zip": "05602",
    "phone":"802.371.5098",
    "latitude": 44.22134352550373,
    "longitude": -72.62090654157016,
    "selector": "rogers",
    "logo100": "/img/artisans-logos/cheeses/logo100/rogers.png",
    "logo200": "/img/artisans-logos/cheeses/logo200/rogers.png",
    "url":"https://www.rogersfarmstead.com/",
    "facebook":"",
    "twitter":"",
    "googleplus":"",
    "instagram":"https://www.instagram.com/rogers_farmstead/?hl=en",
    "council": "https://vtcheese.com/members/rogers-farmstead/"
  },
  {
    "name": "Sage Farm Goat Dairy",
    "address": "2248 West Hill Road",
    "city": "Stowe",
    "state": "VT",
    "zip": "05672",
    "phone":"802.760.0943",
    "latitude": 44.500424762921085,
    "longitude": -72.68638543148815,
    "selector": "sagefarm",
    "logo100": "/img/artisans-logos/cheeses/logo100/sagefarm.png",
    "logo200": "/img/artisans-logos/cheeses/logo200/sagefarm.png",
    "url":"http://www.sagefarmgoatdairy.com/",
    "facebook":"https://m.facebook.com/people/Sage-Farm-Goat-Dairy/100066970026747/",
    "twitter":"",
    "googleplus":"",
    "instagram":"",
    "council": "https://vtcheese.com/members/sage-farm/"
  },
  {
    "name": "Scholten Family Farm",
    "address": "1097 Weybridge Road",
    "city": "Weybridge",
    "state": "VT",
    "zip": "05753",
    "phone":"802.760.0943",
    "latitude": 44.02150785143794,
    "longitude": -73.18819020205402,
    "selector": "scholten",
    "logo100": "/img/artisans-logos/cheeses/logo100/scholten.png",
    "logo200": "/img/artisans-logos/cheeses/logo200/scholten.png",
    "url":"",
    "facebook":"https://www.facebook.com/people/Scholten-Family-Farm/100066802276844/",
    "twitter":"",
    "googleplus":"",
    "instagram":"",
    "council": "https://vtcheese.com/members/scholten-family-farm/"
  },
  {
    "name": "Shadagee Farm",
    "address": "2420 Shadow Lake Road",
    "city": "Craftsbury Common",
    "state": "VT",
    "zip": "05827",
    "phone":"802.586.2879",
    "latitude": 44.654901547118236,
    "longitude": -72.30101187320012,
    "selector": "shadagee",
    "logo100": "/img/artisans-logos/cheeses/logo100/shadagee.png",
    "logo200": "/img/artisans-logos/cheeses/logo200/shadagee.png",
    "url":"",
    "facebook":"",
    "twitter":"",
    "googleplus":"",
    "instagram":"https://www.instagram.com/shadageefarmstead/?hl=en",
    "council": "https://vtcheese.com/members/shadagee-farm/"
  },
  {
    "name": "Shelbourne Farms",
    "address": "1611 Harbor Road",
    "city": "Shelbourne",
    "state": "VT",
    "zip": "05482",
    "phone":"802.985.8686",
    "latitude": 44.395783297659925,
    "longitude": -73.24733134622191,
    "selector": "shelbournefarms",
    "logo100": "/img/artisans-logos/cheeses/logo100/shelbournefarms.png",
    "logo200": "/img/artisans-logos/cheeses/logo200/shelbournefarms.png",
    "url":"https://shelburnefarms.org/",
    "facebook":"https://www.facebook.com/ShelburneFarms/",
    "twitter":"",
    "googleplus":"",
    "instagram":"https://www.instagram.com/shelburnefarms/?hl=en",
    "council": "https://vtcheese.com/members/shelburne-farms/"
  },
  {
    "name": "Spoonwood Cabin Creamery",
    "address": "3090 VT Route 100",
    "city": "Jacksonville",
    "state": "VT",
    "zip": "05342",
    "phone":"802.368.2802",
    "latitude": 42.797256845002764,
    "longitude": -72.82173400023846,
    "selector": "spoonwood",
    "logo100": "/img/artisans-logos/cheeses/logo100/spoonwood.png",
    "logo200": "/img/artisans-logos/cheeses/logo200/spoonwood.png",
    "url":"https://www.spoonwoodcabin.com/",
    "facebook":"https://www.facebook.com/spoonwoodcabin/",
    "twitter":"",
    "googleplus":"",
    "instagram":"",
    "council": "https://vtcheese.com/members/spoonwood-cabin-creamery/"
  },
  {
    "name": "Spring Brook Farm",
    "address": "706 Caper Hill Road",
    "city": "Reading",
    "state": "VT",
    "zip": "05062",
    "phone":"802.484.1226",
    "latitude": 43.51752632222805,
    "longitude": -72.5405282136876,
    "selector": "springbrook",
    "logo100": "/img/artisans-logos/cheeses/logo100/springbrook.png",
    "logo200": "/img/artisans-logos/cheeses/logo200/springbrook.png",
    "url":"https://www.sbfcheese.org/",
    "facebook":"https://www.facebook.com/sbfcheese/",
    "twitter":"",
    "googleplus":"",
    "instagram":"http://instagram.com/springbrookfarmcheese",
    "council": "https://vtcheese.com/members/spring-brook-farm/"
  },
  {
    "name": "Sweet Rowen Farmstead",
    "address": "538 Lafont Road",
    "city": "West Glover",
    "state": "VT",
    "zip": "05875",
    "phone":"802.755.9960",
    "latitude": 44.730897396907125,
    "longitude": -72.29266735970512,
    "selector": "sweetrowen",
    "logo100": "/img/artisans-logos/cheeses/logo100/sweetrowen.png",
    "logo200": "/img/artisans-logos/cheeses/logo200/sweetrowen.png",
    "url":"http://sweetrowen.com/",
    "facebook":"https://www.facebook.com/sweetrowen/info/?tab=overview",
    "twitter":"",
    "googleplus":"",
    "instagram":"http://instagram.com/sweetrowenfarmstead",
    "council": "https://vtcheese.com/members/sweet-rowen-farmstead/"
  },
  {
    "name": "Thistle Hill Farm",
    "address": "107 Clifford Road",
    "city": "North Pomfret",
    "state": "VT",
    "zip": "05053",
    "phone":"802.457.9349",
    "latitude": 43.73028094907122,
    "longitude": -72.48285617507659,
    "selector": "thistlehill",
    "logo100": "/img/artisans-logos/cheeses/logo100/thistlehill.png",
    "logo200": "/img/artisans-logos/cheeses/logo200/thistlehill.png",
    "url":"https://www.thistlehillfarm.com/",
    "facebook":"",
    "twitter":"",
    "googleplus":"",
    "instagram":"",
    "council": "https://vtcheese.com/members/thistle-hill-farm/"
  },
  {
    "name": "Three Sheperds Farm",
    "address": "108 Roxbury Mountain Road",
    "city": "Warren",
    "state": "VT",
    "zip": "05674",
    "phone":"802.496.3998",
    "latitude": 44.10889964226256,
    "longitude": -72.81781427321584,
    "selector": "threesheperds",
    "logo100": "/img/artisans-logos/cheeses/logo100/threesheperds.png",
    "logo200": "/img/artisans-logos/cheeses/logo200/threesheperds.png",
    "url":"https://www.thistlehillfarm.com/",
    "facebook":"https://www.facebook.com/Three-Shepherds-Farm-113196135358750/",
    "twitter":"",
    "googleplus":"",
    "instagram":"",
    "council": "https://vtcheese.com/members/three-shepherds-cheese/"
  },
  {
    "name": "Twig Farm",
    "address": "2575 South Bingham Street",
    "city": "Cornwall",
    "state": "VT",
    "zip": "05778",
    "phone":"802.462.3363",
    "latitude": 43.90729417109899,
    "longitude": -73.23221903579253,
    "selector": "twigfarm",
    "logo100": "/img/artisans-logos/cheeses/logo100/twigfarm.png",
    "logo200": "/img/artisans-logos/cheeses/logo200/twigfarm.png",
    "url":"https://twigfarm.com/",
    "facebook":"https://www.facebook.com/twigfarmcheese/",
    "twitter":"",
    "googleplus":"",
    "instagram":"",
    "council": "https://vtcheese.com/members/twig-farm/"
  },
  {
    "name": "Vermont Creamery",
    "address": "20 Pitman Road",
    "city": "Websterville",
    "state": "VT",
    "zip": "05678",
    "phone":"802.884.6287",
    "latitude": 44.171404665159734,
    "longitude": -72.48766699040688,
    "selector": "vermontcream",
    "logo100": "/img/artisans-logos/cheeses/logo100/vermontcream.png",
    "logo200": "/img/artisans-logos/cheeses/logo200/vermontcream.png",
    "url":"https://www.vermontcreamery.com/",
    "facebook":"https://www.facebook.com/vermontcreamery/",
    "twitter":"",
    "googleplus":"",
    "instagram":"",
    "council": "https://vtcheese.com/members/vermont-creamery/"
  },
  {
    "name": "Vermont Farmstead Cheese Company",
    "address": "3786 Church Hill Road",
    "city": "South Woodstock",
    "state": "VT",
    "zip": "05071",
    "phone":"802.457.9992",
    "latitude": 43.57371818965569,
    "longitude": -72.54087918755263,
    "selector": "vermontfarmstead",
    "logo100": "/img/artisans-logos/cheeses/logo100/vermontfarmstead.png",
    "logo200": "/img/artisans-logos/cheeses/logo200/vermontfarmstead.png",
    "url":"https://vermontfarmstead.com/",
    "facebook":"https://www.facebook.com/VermontFarmsteadCheeseCo/",
    "twitter":"",
    "googleplus":"",
    "instagram":"https://www.instagram.com/vtfarmsteadcheese/?hl=en",
    "council": "https://vtcheese.com/members/vermont-farmstead-company/"
  },
  {
    "name": "Vermont Shepherd",
    "address": "281 Patch Farm Road",
    "city": "Putney",
    "state": "VT",
    "zip": "05346",
    "phone":"802.387.4473",
    "latitude": 43.053929452422715,
    "longitude": -72.5209921192741,
    "selector": "vermontshepherd",
    "logo100": "/img/artisans-logos/cheeses/logo100/vermontshepherd.png",
    "logo200": "/img/artisans-logos/cheeses/logo200/vermontshepherd.png",
    "url":"https://vermontshepherd.com/",
    "facebook":"",
    "twitter":"",
    "googleplus":"",
    "instagram":"https://www.instagram.com/vermontshepherd/?hl=en",
    "council": "https://vtcheese.com/members/vermont-shepherd/"
  },
  {
    "name": "von Trapp Farmstead",
    "address": "251 Common Road",
    "city": "Waitsfield",
    "state": "VT",
    "zip": "05673",
    "phone":"802.496.6100",
    "latitude": 44.18694531243067,
    "longitude": -72.79563271369217,
    "selector": "vontrapp",
    "logo100": "/img/artisans-logos/cheeses/logo100/vontrapp.png",
    "logo200": "/img/artisans-logos/cheeses/logo200/vontrapp.png",
    "url":"https://vontrappfarmstead.com/",
    "facebook":"https://www.facebook.com/VonTrappFarmsteadCheese/",
    "twitter":"",
    "googleplus":"",
    "instagram":"https://www.instagram.com/vontrappfarmstead/?hl=en",
    "council": "https://vtcheese.com/members/von-trapp-farmstead/"
  }
]