[
  {
    "name": "Stowe Cider",
    "address": "17 Town Farm Lane",
    "city": "Stowe",
    "state": "VT",
    "zip": "05672",
    "phone":"802.253.2065",
    "latitude": 44.475908081446896,
    "longitude": -72.70179481660405,
    "region": "northcentral",
    "selector": "stowecider",
    "logo100": "/img/artisans-logos/ciders/logo100/stowecider.png",
    "logo200": "/img/artisans-logos/ciders/logo200/stowecider.png",
    "url":"https://www.stowecider.com/",
    "facebook":"http://www.facebook.com/stowecider",
    "twitter":"",
    "googleplus":"",
    "instagram":"https://www.instagram.com/stowecider/"
  },
  {
    "name": "Champlain Orchards",
    "address": "3597 VT Route 74",
    "city": "Shoreham",
    "state": "VT",
    "zip": "05770",
    "phone":"802.897.2777",
    "latitude": 43.85703964139849,
    "longitude": -73.35300664546972,
    "region": "southcentral",
    "selector": "champlainorchards",
    "logo100": "/img/artisans-logos/ciders/logo100/champlainorchards.png",
    "logo200": "/img/artisans-logos/ciders/logo200/champlainorchards.png",
    "url":"https://www.champlainorchardscidery.com/",
    "facebook":"http://www.facebook.com/champlainorchards",
    "twitter":"",
    "googleplus":"",
    "instagram":"http://instagram.com/champlainorchards"
  },
  {
    "name": "Eden Ciders",
    "address": "150 Main Street",
    "city": "Newport",
    "state": "VT",
    "zip": "05855",
    "phone":"802.334.4231",
    "latitude": 44.93614295874543,
    "longitude": -72.2091493435647,
    "region": "north",
    "selector": "edenciders",
    "logo100": "/img/artisans-logos/ciders/logo100/edenciders.png",
    "logo200": "/img/artisans-logos/ciders/logo200/edenciders.png",
    "url":"https://www.edenciders.com/",
    "facebook":"https://facebook.com/edenspecialtyciders",
    "twitter":"https://twitter.com/edenciders",
    "googleplus":"",
    "instagram":""
  },
  {
    "name": "Citizen Cider",
    "address": "316 Pine Street",
    "city": "Burlington",
    "state": "VT",
    "zip": "05401",
    "phone":"802.497.1987",
    "latitude": 44.47088800699432,
    "longitude": -73.21443530125951,
    "region": "northcentral",
    "selector": "citizencider",
    "logo100": "/img/artisans-logos/ciders/logo100/citizencider.png",
    "logo200": "/img/artisans-logos/ciders/logo200/citizencider.png",
    "url":"https://www.citizencider.com/",
    "facebook":"https://www.facebook.com/citizencider",
    "twitter":"",
    "googleplus":"",
    "instagram":"http://instagram.com/citizencider"
  },
  {
    "name": "Shacksbury",
    "address": "127 Meigs Road",
    "city": "Vergennes",
    "state": "VT",
    "zip": "05491",
    "phone":"802.458.0530",
    "latitude": 44.17852251544607,
    "longitude": -73.24498327639557,
    "region": "southcentral",
    "selector": "shacksbury",
    "logo100": "/img/artisans-logos/ciders/logo100/shacksbury.png",
    "logo200": "/img/artisans-logos/ciders/logo200/shacksbury.png",
    "url":"https://www.shacksbury.com/",
    "facebook":"http://www.facebook.com/shacksbury",
    "twitter":"",
    "googleplus":"",
    "instagram":"https://www.instagram.com/shacksbury/"
  },
  {
    "name": "Flag Hill Farm",
    "address": "1354 Ewing Road",
    "city": "Vershire",
    "state": "VT",
    "zip": "05079",
    "phone":"802.685.7724",
    "latitude": 43.96898092727505,
    "longitude": -72.3649052743006,
    "region": "southcentral",
    "selector": "flaghill",
    "logo100": "/img/artisans-logos/ciders/logo100/flaghill.png",
    "logo200": "/img/artisans-logos/ciders/logo200/flaghill.png",
    "url":"https://www.flaghillfarm.com/",
    "facebook":"https://www.facebook.com/FlagHillFarm/",
    "twitter":"",
    "googleplus":"",
    "instagram":"https://www.instagram.com/flaghillfarm_vermont"
  },
  {
    "name": "Windfall Orchard",
    "address": "1491 VT Route 30",
    "city": "Cornwall",
    "state": "VT",
    "zip": "05753",
    "phone":"802.462.3158",
    "latitude": 43.97834414534736,
    "longitude": -73.20452208964488,
    "region": "southcentral",
    "selector": "windfallorchard",
    "logo100": "/img/artisans-logos/ciders/logo100/windfallorchard.png",
    "logo200": "/img/artisans-logos/ciders/logo200/windfallorchard.png",
    "url":"https://windfallorchardvt.com/",
    "facebook":"https://www.facebook.com/windfallorchard/",
    "twitter":"https://twitter.com/windfallorchard",
    "googleplus":"",
    "instagram":"http://www.instagram.com/windfallorchard/"
  },
  {
    "name": "Tin Hat Cider",
    "address": "PO Box 103",
    "city": "Roxbury",
    "state": "VT",
    "zip": "05669",
    "phone":"518.821.1974",
    "latitude": "44.183620272032144",
    "longitude": "-72.83829197554387",
    "region": "",
    "selector": "tinhatcider",
    "logo100": "/img/artisans-logos/ciders/logo100/tinhatcider.png",
    "logo200": "/img/artisans-logos/ciders/logo200/tinhatcider.png",
    "url":"https://www.tinhatcider.com/",
    "facebook":"",
    "twitter":"",
    "googleplus":"",
    "instagram":"https://www.instagram.com/tinhatcider/"
  },
  {
    "name": "Cold Hollow Cider Mill",
    "address": "3600 VT Route 100",
    "city": "Waterbury Center",
    "state": "VT",
    "zip": "05677",
    "phone":"802.244.8771",
    "latitude": 44.38145809430686,
    "longitude": -72.72007889264408,
    "region": "northcentral",
    "selector": "coldhollow",
    "logo100": "/img/artisans-logos/ciders/logo100/coldhollow.png",
    "logo200": "/img/artisans-logos/ciders/logo200/coldhollow.png",
    "url":"https://coldhollow.com/",
    "facebook":"https://www.facebook.com/COLDHOLLOWCIDERMILL",
    "twitter":"",
    "googleplus":"",
    "instagram":"https://www.instagram.com/coldhollowcidermillvt"
  },
  {
    "name": "Woodchuck Cider",
    "address": "1321 Exchange Street",
    "city": "Middlebury",
    "state": "VT",
    "zip": "05753",
    "phone":"802.385.3656",
    "latitude": 44.03663974244495,
    "longitude": -73.16535148778883,
    "region": "southcentral",
    "selector": "woodchuckcider",
    "logo100": "/img/artisans-logos/ciders/logo100/woodchuckcider.png",
    "logo200": "/img/artisans-logos/ciders/logo200/woodchuckcider.png",
    "url":"https://www.woodchuck.com/",
    "facebook":"https://www.facebook.com/WoodchuckCider",
    "twitter":"https://twitter.com/woodchuckcider",
    "googleplus":"",
    "instagram":"https://instagram.com/woodchuckcider/"
  },
  {
    "name": "Silo Distillery",
    "address": "3 Artisans Way",
    "city": "Windsor",
    "state": "VT",
    "zip": "05089",
    "phone":"802.674.4220",
    "latitude": 43.51448256622179,
    "longitude": -72.40205619002758,
    "region": "southcentral",
    "selector": "silodistillery",
    "logo100": "/img/artisans-logos/ciders/logo100/silodistillery.png",
    "logo200": "/img/artisans-logos/ciders/logo200/silodistillery.png",
    "url":"https://www.silodistillery.com/",
    "facebook":"https://www.facebook.com/SILOdistillery/",
    "twitter":"",
    "googleplus":"",
    "instagram":"https://www.instagram.com/silo_distillery/?hl=en"
  },
  {
    "name": "Boyden Valley Wine And Spirits",
    "address": "64 VT Route 104",
    "city": "Cambridge",
    "state": "VT",
    "zip": "05444",
    "phone":"",
    "latitude": 44.6479429964402,
    "longitude": -72.8888677031043,
    "region": "north",
    "selector": "boydenvalley",
    "logo100": "/img/artisans-logos/ciders/logo100/boydenvalley.png",
    "logo200": "/img/artisans-logos/ciders/logo200/boydenvalley.png",
    "url":"https://www.boydenvalley.com/home",
    "facebook":"https://www.facebook.com/BoydenValleyWinery/",
    "twitter":"",
    "googleplus":"",
    "instagram":"https://www.instagram.com/boydenvalleywinery/"
  },
  {
    "name": "Wildbranch Cider",
    "address": "1163 West Hill Road",
    "city": "Craftsbury",
    "state": "VT",
    "zip": "05826",
    "phone":"802.595.1935",
    "latitude": 44.62004158322603,
    "longitude": -72.4064676877609,
    "region": "north",
    "selector": "wildbranchcider",
    "logo100": "/img/artisans-logos/ciders/logo100/wildbranchcider.png",
    "logo200": "/img/artisans-logos/ciders/logo200/wildbranchcider.png",
    "url":"https://www.wildbranchcider.com/",
    "facebook":"",
    "twitter":"",
    "googleplus":"",
    "instagram":"https://www.instagram.com/wildbranchcider/"
  },
  {
    "name": "Fable Farm Fermentory",
    "address": "22 Orchard Hill Road",
    "city": "Barnard",
    "state": "VT",
    "zip": "05031",
    "phone":"802.234.5288",
    "latitude": 43.741842853343414,
    "longitude": -72.59253186081995,
    "region": "southcentral",
    "selector": "fablefarm",
    "logo100": "/img/artisans-logos/ciders/logo100/fablefarm.png",
    "logo200": "/img/artisans-logos/ciders/logo200/fablefarm.png",
    "url":"https://fablefarmfermentory.com/",
    "facebook":"https://www.facebook.com/fable.farm",
    "twitter":"",
    "googleplus":"",
    "instagram":"https://instagram.com/fablefarm"
  },
  {
    "name": "Mountain Mac Cider Company",
    "address": "217 Quarry Road",
    "city": "Middlebury",
    "state": "VT",
    "zip": "05753",
    "phone":"",
    "latitude": 44.01469280242414,
    "longitude": -73.13963386106289,
    "region": "southcentral",
    "selector": "mountainmaccider",
    "logo100": "/img/artisans-logos/ciders/logo100/mountainmaccider.png",
    "logo200": "/img/artisans-logos/ciders/logo200/mountainmaccider.png",
    "url":"https://mountainmaccider.com/",
    "facebook":"https://www.facebook.com/mountainmaccider/",
    "twitter":"",
    "googleplus":"",
    "instagram":"https://www.instagram.com/mountainmaccider/"
  },
  {
    "name": "Little City Cider Company",
    "address": "139 Shields Drive",
    "city": "Bennington",
    "state": "VT",
    "zip": "05201",
    "phone":"802.242.1611",
    "latitude": 42.89612480654151,
    "longitude": -73.19045707461014,
    "region": "south",
    "selector": "littlecitycider",
    "logo100": "/img/artisans-logos/ciders/logo100/littlecitycider.png",
    "logo200": "/img/artisans-logos/ciders/logo200/littlecitycider.png",
    "url":"",
    "facebook":"hhttps://www.facebook.com/profile.php?id=100070685873535",
    "twitter":"",
    "googleplus":"",
    "instagram":"https://www.instagram.com/littlecityciderco/"
  }
]