[
  {
    "name": "Appalachian Gap Distillery",
    "address": "88 Mainelli Road",
    "city": "Middlebury",
    "state": "VT",
    "zip": "05753",
    "latitude": 44.03562599243498,
    "longitude": -73.16981374438222,
    "logo100": "/img/artisans-logos/distillers/logo100/appgap.png",
    "logo200": "/img/artisans-logos/distillers/logo200/appgap.png",
    "selector": "appgap",
    "url":"https://appalachiangap.com/",
    "phone":"802.989.7362",
    "facebook":"https://www.facebook.com/AppalachianGapDistillery",
    "twitter":"https://twitter.com/appgapdistill",
    "googleplus":"",
    "instagram":"https://www.instagram.com/app_gap_distillery/",
    "council": "https://www.distilledvermont.org/AppalachianGap.php"
  },
  {
    "name": "Boyden Valley Winery & Spirits",
    "address": "64 VT Route 104",
    "city": "Cambridge",
    "state": "VT",
    "zip": "05444",
    "latitude": 44.64791247284112,
    "longitude": -72.88889988852094,
    "logo100": "/img/artisans-logos/distillers/logo100/boydenvalley.png",
    "logo200": "/img/artisans-logos/distillers/logo200/boydenvalley.png",
    "selector": "boydenvalley",
    "url":"https://www.boydenvalley.com/",
    "phone":"802.644.8151",
    "facebook":"https://www.facebook.com/BoydenValleyWinery/",
    "twitter":"",
    "googleplus":"",
    "instagram":"https://www.instagram.com/boydenvalleywinery/",
    "council": "https://www.distilledvermont.org/BoydenValleySpirits.php"
  },
  {
    "name": "Caledonia Spirits",
    "address": "116 Gin Lane",
    "city": "Montpelier",
    "state": "VT",
    "zip": "05602",
    "latitude": 44.2505237497376,
    "longitude": -72.56628554437606,
    "logo100": "/img/artisans-logos/distillers/logo100/caledonia.png",
    "logo200": "/img/artisans-logos/distillers/logo200/caledonia.png",
    "selector": "caledonia",
    "url":"https://caledoniaspirits.com/",
    "phone":"802.742.8000",
    "facebook":"https://www.facebook.com/caledoniaspirits",
    "twitter":"https://twitter.com/CaledoniaSpirit",
    "googleplus":"",
    "instagram":"https://www.instagram.com/barrhillgin",
    "council": "https://www.distilledvermont.org/CaledoniaSpirits.php"
  },
  {
    "name": "St. Johnsbury Distillery",
    "address": "74 Eastern Avenue",
    "city": "St. Johnsbury",
    "state": "VT",
    "zip": "05819",
    "latitude": 44.41844614866123,
    "longitude": -72.01713643940478,
    "logo100": "/img/artisans-logos/distillers/logo100/saintj.png",
    "logo200": "/img/artisans-logos/distillers/logo200/saintj.png",
    "selector": "saintj",
    "url":"https://www.stjohnsburydistillery.com/",
    "phone":"802.424.1146",
    "facebook":"http://facebook.com/stjdistillery",
    "twitter":"",
    "googleplus":"",
    "instagram":"http://instagram.com/stjdistillery",
    "council": ""
  },
  {
    "name": "Flag Hill Farm",
    "address": "135 Ewing Road",
    "city": "Vershire",
    "state": "VT",
    "zip": "05079",
    "latitude": 43.968996378719346,
    "longitude": -72.36498037506978,
    "logo100": "/img/artisans-logos/distillers/logo100/flaghill.png",
    "logo200": "/img/artisans-logos/distillers/logo200/flaghill.png",
    "selector": "flaghill",
    "url":"https://www.flaghillfarm.com/",
    "phone":"802.685.7724",
    "facebook":"https://www.facebook.com/FlagHillFarm/",
    "twitter":"",
    "googleplus":"",
    "instagram":"https://www.instagram.com/flaghillfarm_vermont",
    "council": "https://www.distilledvermont.org/FlagHillFarm.php"
  },
  {
    "name": "Green Mountain Distillers",
    "address": "171 Whiskey Run",
    "city": "Morrisville",
    "state": "VT",
    "zip": "05661",
    "latitude": 44.52704258192222,
    "longitude": -72.61761440529209,
    "logo100": "/img/artisans-logos/distillers/logo100/greenmountain.png",
    "logo200": "/img/artisans-logos/distillers/logo200/greenmountain.png",
    "selector": "greenmountain",
    "url":"https://www.greendistillers.com/",
    "phone":"802.253.0064",
    "facebook":"https://www.facebook.com/greendistillers",
    "twitter":"",
    "googleplus":"",
    "instagram":"https://www.instagram.com/greenmountaindistillers/?hl=en",
    "council": "https://www.distilledvermont.org/GreenMountainDistillers.php"
  },
  {
    "name": "Hell's Gate Distillery",
    "address": "6293 Ethan Allen Highway",
    "city": "Georgia",
    "state": "VT",
    "zip": "05478",
    "latitude": 44.76171664662008,
    "longitude": -73.11022453081655,
    "logo100": "/img/artisans-logos/distillers/logo100/hellsgate.png",
    "logo200": "/img/artisans-logos/distillers/logo200/hellsgate.png",
    "selector": "hellsgate",
    "url":"https://jandjfarmllc.square.site/",
    "phone":"802.782.4257",
    "facebook":"https://www.facebook.com/vermontcurrant",
    "twitter":"",
    "googleplus":"",
    "instagram":"",
    "council": "https://www.distilledvermont.org/HellsGate.php"
  },
  {
    "name": "Hooker Mountain Farm",
    "address": "1193 Lovely Road",
    "city": "Marshfield",
    "state": "VT",
    "zip": "05658",
    "latitude": 44.34741794363809,
    "longitude": -72.2703181629308,
    "logo100": "/img/artisans-logos/distillers/logo100/hookermountain.png",
    "logo200": "/img/artisans-logos/distillers/logo200/hookermountain.png",
    "selector": "hookermountain",
    "url":"http://www.hookermountainfarm.com/",
    "phone":"802.426.2052",
    "facebook":"https://www.facebook.com/HookerMountainFarm/",
    "twitter":"",
    "googleplus":"",
    "instagram":"https://www.instagram.com/hookermtn.farmdistillery/",
    "council": "https://www.distilledvermont.org/HookerMtnDistillery.php"
  },
  {
    "name": "Village Garage Distillery",
    "address": "107 Depot Street",
    "city": "Bennington",
    "state": "VT",
    "zip": "05201",
    "latitude": 42.879888356937336,
    "longitude": -73.1982357014247,
    "logo100": "/img/artisans-logos/distillers/logo100/villagegarage.png",
    "logo200": "/img/artisans-logos/distillers/logo200/villagegarage.png",
    "selector": "villagegarage",
    "url":"https://www.villagegarage.com/",
    "phone":"802.447.7663",
    "facebook":"https://www.facebook.com/ViIIageGarage/",
    "twitter":"",
    "googleplus":"",
    "instagram":"https://www.instagram.com/villagegaragedistillery/",
    "council": ""
  },
  {
    "name": "Killington Distillery",
    "address": "47 Old Mill Road",
    "city": "Killington",
    "state": "VT",
    "zip": "05751",
    "latitude": 43.63093981962908,
    "longitude": -72.79725505930863,
    "logo100": "/img/artisans-logos/distillers/logo100/killington.png",
    "logo200": "/img/artisans-logos/distillers/logo200/killington.png",
    "selector": "killington",
    "url":"https://killingtondistillery.com/",
    "phone":"802.422.8200",
    "facebook":"https://www.facebook.com/killingtondistillery/",
    "twitter":"",
    "googleplus":"",
    "instagram":"https://www.instagram.com/stillonthemtn/",
    "council": ""
  },
  {
      "name": "Black Flannel Distilling Co.",
      "address": "21 Essex Way, #201",
      "city": "Essex Junction",
      "state": "VT",
      "zip": "05452",
      "latitude": 44.492338,
      "longitude": -73.117761,
      "logo100": "/img/artisans-logos/distillers/logo100/blackflannel.png",
      "logo200": "/img/artisans-logos/distillers/logo200/blackflannel.png",
      "selector": "blackflannel",
      "url":"https://www.blackflannel.com/",
      "phone":"802.857.5629",
      "facebook":"https://www.facebook.com/BlackFlannelBrewing/",
      "twitter":"https://twitter.com/blackflannelvt",
      "googleplus":"",
      "instagram":"https://www.instagram.com/blackflannelbrewing/",
      "council": ""
  },
  {
      "name": "Mad River Distillers",
      "address": "89 Mad River Green",
      "city": "Waitsfield",
      "state": "VT",
      "zip": "05673",
      "latitude": 44.19577324616465,
      "longitude": -72.83336842362239,
      "logo100": "/img/artisans-logos/distillers/logo100/madriver.png",
      "logo200": "/img/artisans-logos/distillers/logo200/madriver.png",
      "selector": "madriver",
      "url":"https://www.madriverdistillers.com/",
      "phone":"802.496.3165",
      "facebook":"https://www.facebook.com/pages/Mad-River-Distillers/660935320589782",
      "twitter":"https://twitter.com/drinkmrd",
      "googleplus":"",
      "instagram":"https://instagram.com/madriverdistillers",
      "council": "https://www.distilledvermont.org/Mad-River-Distillers.php"
  },
  {
      "name": "Putney Mountain Winery and Spirits",
      "address": "8 Bellows Falls Road",
      "city": "Putney",
      "state": "VT",
      "zip": "05346",
      "latitude": 42.976609936903294,
      "longitude": -72.52049016698334,
      "logo100": "/img/artisans-logos/distillers/logo100/putney.png",
      "logo200": "/img/artisans-logos/distillers/logo200/putney.png",
      "selector": "putney",
      "url":"https://putneymountainwinery.com/",
      "phone":"802.387.5925",
      "facebook":"https://m.facebook.com/159684524063708/",
      "twitter":"",
      "googleplus":"",
      "instagram":"https://www.instagram.com/putneymountainwinery/",
      "council": "https://www.distilledvermont.org/PutneyMountainWinery.php"
  },
  {
      "name": "Saxtons River Distillery",
      "address": "155 Chickering Drive",
      "city": "Brattleboro",
      "state": "VT",
      "zip": "05301",
      "latitude": 42.879923280662986,
      "longitude": -72.56254703213754,
      "logo100": "/img/artisans-logos/distillers/logo100/saxtons.png",
      "logo200": "/img/artisans-logos/distillers/logo200/saxtons.png",
      "selector": "saxtons",
      "url":"https://www.saxtonsdistillery.com/",
      "phone":"802.246.1128",
      "facebook":"https://www.facebook.com/SaxtonsRiverDistillery/",
      "twitter":"https://twitter.com/SRDistillery",
      "googleplus":"",
      "instagram":"https://www.instagram.com/saxtonsriverdistillery/",
      "council": "https://www.distilledvermont.org/SaxtonsRiverDistillers.php"
  },
  {
      "name": "Shelburne Orchards Distillery",
      "address": "216 Orchard Road",
      "city": "Shelburne",
      "state": "VT",
      "zip": "05482",
      "latitude": 44.352177733997415,
      "longitude": -73.26549710138241,
      "logo100": "/img/artisans-logos/distillers/logo100/shelburne.png",
      "logo200": "/img/artisans-logos/distillers/logo200/shelburne.png",
      "selector": "shelburne",
      "url":"https://www.deadbirdbrandy.com/",
      "phone":"802.985.2753",
      "facebook":"https://www.facebook.com/Shelburne-Orchards-203822586339804",
      "twitter":"",
      "googleplus":"",
      "instagram":"https://www.instagram.com/shelburneorchards/",
      "council": "https://www.distilledvermont.org/ShelburneOrchardsDistillery.php"
  },
  {
      "name": "Silo Distillery",
      "address": "9 Artisans Way",
      "city": "Windsor",
      "state": "VT",
      "zip": "05089",
      "latitude": 43.51468109539074,
      "longitude": -72.40220622856313,
      "logo100": "/img/artisans-logos/distillers/logo100/silo.png",
      "logo200": "/img/artisans-logos/distillers/logo200/silo.png",
      "selector": "silo",
      "url":"https://www.silodistillery.com/silo-distillery",
      "phone":"802.674.4220",
      "facebook":"https://www.facebook.com/SILOdistillery/",
      "twitter":"",
      "googleplus":"",
      "instagram":"https://www.instagram.com/silo_distillery/?hl=en",
      "council": "https://www.distilledvermont.org/Silo.php"
  },
  {
      "name": "Smugglers' Notch Distillery",
      "address": "5087 VT Route 15",
      "city": "Jeffersonville",
      "state": "VT",
      "zip": "05464",
      "latitude": 44.647528529381205,
      "longitude": -72.83118281856102,
      "logo100": "/img/artisans-logos/distillers/logo100/smuggs.png",
      "logo200": "/img/artisans-logos/distillers/logo200/smuggs.png",
      "selector": "smuggs",
      "url":"https://smugglersnotchdistillery.com/",
      "phone":"802.760.0619",
      "facebook":"https://facebook.com/smugglersnotchdistillery",
      "twitter":"https://twitter.com/snd_spirits",
      "googleplus":"",
      "instagram":"https://www.instagram.com/snd_spirits/?hl=en",
      "council": "https://www.distilledvermont.org/SmugglersNotchDistillery.php"
  },
  {
      "name": "Vermont Distillers",
      "address": "7755 VT Route 9 East",
      "city": "West Marlboro",
      "state": "VT",
      "zip": "05363",
      "latitude": 42.85298713918414,
      "longitude": -72.79593347446736,
      "logo100": "/img/artisans-logos/distillers/logo100/vermontdistillers.png",
      "logo200": "/img/artisans-logos/distillers/logo200/vermontdistillers.png",
      "selector": "vermontdistillers",
      "url":"https://www.vermontdistillers.com/",
      "phone":"802.464.2003",
      "facebook":"https://www.facebook.com/vtdistillers",
      "twitter":"https://twitter.com/vt_distillers",
      "googleplus":"",
      "instagram":"https://www.instagram.com/vermontdistillers/",
      "council": "https://www.distilledvermont.org/VermontDistillers.php"
  },
  {
      "name": "Vermont Spirits Distilling Company",
      "address": "5573 Woodstock Road",
      "city": "Quechee",
      "state": "VT",
      "zip": "05001",
      "latitude": 43.637806057243736,
      "longitude": -72.39660640068496,
      "logo100": "/img/artisans-logos/distillers/logo100/vermontspirits.png",
      "logo200": "/img/artisans-logos/distillers/logo200/vermontspirits.png",
      "selector": "vermontspirits",
      "url":"https://vermontspirits.com/",
      "phone":"802.281.6398",
      "facebook":"https://www.facebook.com/vermontspiritsdistillingco",
      "twitter":"https://twitter.com/vermontspirits",
      "googleplus":"",
      "instagram":"https://instagram.com/vermontspirits",
      "council": "https://www.distilledvermont.org/VermontSpiritsDistillingCompany.php"
  },
  {
      "name": "WhistlePig Whiskey",
      "address": "1792 Quechee Main Street",
      "city": "White River Junction",
      "state": "VT",
      "zip": "05001",
      "latitude": 43.70451655985806,
      "longitude": -72.42175585019791,
      "logo100": "/img/artisans-logos/distillers/logo100/whistlepig.png",
      "logo200": "/img/artisans-logos/distillers/logo200/whistlepig.png",
      "selector": "whistlepig",
      "url":"https://www.whistlepigwhiskey.com/",
      "phone":"",
      "facebook":"https://www.facebook.com/whistlepigwhiskey/",
      "twitter":"https://twitter.com/WhistlePigRye",
      "googleplus":"",
      "instagram":"https://www.instagram.com/whistlepigwhiskey/",
      "council": "https://www.distilledvermont.org/WhistlePigFarm.php"
  },
  {
      "name": "Wild Hart Distillery",
      "address": "29 Sage Court",
      "city": "Shelburne",
      "state": "VT",
      "zip": "05482",
      "latitude": 44.365530635077384,
      "longitude": -73.23194689659553,
      "logo100": "/img/artisans-logos/distillers/logo100/wildhart.png",
      "logo200": "/img/artisans-logos/distillers/logo200/wildhart.png",
      "selector": "wildhart",
      "url":"https://www.wildhartdistillery.com/",
      "phone":"802.922.1520",
      "facebook":"https://www.facebook.com/wildhartdistillery",
      "twitter":"",
      "googleplus":"",
      "instagram":"https://www.instagram.com/wildhartdistillery",
      "council": "https://www.distilledvermont.org/WildHartDistillery.php"
  }

]